[
  {
    "date": "2025-07-11 0:00:00",
    "company": "BNSF",
    "location": "Barstow, CA",
    "Yard": "Barstow, CA",
    "lat": 34.8957957,
    "lng": -117.0172826,
    "dwell_time": 24.7,
    "Average": 35.67555556,
    "indicator": -1.742569262,
    "congestion_level": "Low"
  },
  {
    "date": "2025-07-11 0:00:00",
    "company": "BNSF",
    "location": "Denver, CO",
    "Yard": "Denver, CO",
    "lat": 39.7392358,
    "lng": -104.990251,
    "dwell_time": 27.2,
    "Average": 32.45555556,
    "indicator": -1.379300008,
    "congestion_level": "Low"
  },
  {
    "date": "2025-07-11 0:00:00",
    "company": "BNSF",
    "location": "Fort Worth, TX",
    "Yard": "Fort Worth, TX",
    "lat": 32.7554883,
    "lng": -97.3307658,
    "dwell_time": 27.4,
    "Average": 27.89555556,
    "indicator": -0.08526913904,
    "congestion_level": "Average"
  },
  {
    "date": "2025-07-11 0:00:00",
    "company": "BNSF",
    "location": "Galesburg, IL",
    "Yard": "Galesburg, IL",
    "lat": 40.9478158,
    "lng": -90.3712395,
    "dwell_time": 27.3,
    "Average": 31.70222222,
    "indicator": -1.360220091,
    "congestion_level": "Low"
  },
  {
    "date": "2025-07-11 0:00:00",
    "company": "BNSF",
    "location": "Kansas City, KS",
    "Yard": "Kansas City, KS",
    "lat": 39.0997265,
    "lng": -94.5785667,
    "dwell_time": 25.0,
    "Average": 33.98888889,
    "indicator": -1.587412172,
    "congestion_level": "Low"
  },
  {
    "date": "2025-07-11 0:00:00",
    "company": "BNSF",
    "location": "Lincoln, NE",
    "Yard": "Lincoln, NE",
    "lat": 40.813616,
    "lng": -96.7025955,
    "dwell_time": 25.2,
    "Average": 30.76666667,
    "indicator": -1.205479845,
    "congestion_level": "Low"
  },
  {
    "date": "2025-07-11 0:00:00",
    "company": "BNSF",
    "location": "Memphis, TN",
    "Yard": "Memphis, TN",
    "lat": 35.1495343,
    "lng": -90.0489801,
    "dwell_time": 18.4,
    "Average": 18.58444444,
    "indicator": -0.06187657229,
    "congestion_level": "Average"
  },
  {
    "date": "2025-07-11 0:00:00",
    "company": "BNSF",
    "location": "Northtown, MN",
    "Yard": "Northtown, MN",
    "lat": 45.128403,
    "lng": -93.259694,
    "dwell_time": 24.5,
    "Average": 31.44222222,
    "indicator": -1.720482104,
    "congestion_level": "Low"
  },
  {
    "date": "2025-07-11 0:00:00",
    "company": "BNSF",
    "location": "Pasco, WA",
    "Yard": "Pasco, WA",
    "lat": 46.2305049,
    "lng": -119.0922316,
    "dwell_time": 20.7,
    "Average": 28.94222222,
    "indicator": -1.983592769,
    "congestion_level": "Low"
  },
  {
    "date": "2025-07-11 0:00:00",
    "company": "BNSF",
    "location": "Tulsa, OK",
    "Yard": "Tulsa, OK",
    "lat": 36.1539816,
    "lng": -95.992775,
    "dwell_time": 24.6,
    "Average": 26.49333333,
    "indicator": -0.575948483,
    "congestion_level": "Average"
  },
  {
    "date": "2025-07-11 0:00:00",
    "company": "CN",
    "location": "Baton Rouge, LA",
    "Yard": "Baton Rouge, LA",
    "lat": 30.4514677,
    "lng": -91.1871466,
    "dwell_time": 18.17,
    "Average": 14.93288889,
    "indicator": 0.9013406327,
    "congestion_level": "Average"
  },
  {
    "date": "2025-07-11 0:00:00",
    "company": "CN",
    "location": "Champaign, IL",
    "Yard": "Champaign, IL",
    "lat": 40.1164204,
    "lng": -88.2433829,
    "dwell_time": 14.09,
    "Average": 20.21177778,
    "indicator": -1.191252059,
    "congestion_level": "Low"
  },
  {
    "date": "2025-07-11 0:00:00",
    "company": "CN",
    "location": "Fond Du Lac, WI",
    "Yard": "Fond Du Lac, WI",
    "lat": 43.7730448,
    "lng": -88.4470508,
    "dwell_time": 21.37,
    "Average": 21.96666667,
    "indicator": -0.1363711482,
    "congestion_level": "Average"
  },
  {
    "date": "2025-07-11 0:00:00",
    "company": "CN",
    "location": "Geismar, LA",
    "Yard": "Geismar, LA",
    "lat": 30.2193468,
    "lng": -91.0065088,
    "dwell_time": 17.42,
    "Average": 14.94244444,
    "indicator": 1.201136526,
    "congestion_level": "High"
  },
  {
    "date": "2025-07-11 0:00:00",
    "company": "CN",
    "location": "Jackson, MS",
    "Yard": "Jackson, MS",
    "lat": 32.2987573,
    "lng": -90.1848103,
    "dwell_time": 25.28,
    "Average": 12.75844444,
    "indicator": 4.674517025,
    "congestion_level": "Very High"
  },
  {
    "date": "2025-07-11 0:00:00",
    "company": "CN",
    "location": "Gary, IN",
    "Yard": "Gary, IN",
    "lat": 41.5933696,
    "lng": -87.3464271,
    "dwell_time": 27.32,
    "Average": 23.97244444,
    "indicator": 0.8641878153,
    "congestion_level": "Average"
  },
  {
    "date": "2025-07-11 0:00:00",
    "company": "CN",
    "location": "Markham, ON",
    "Yard": "Markham, ON",
    "lat": 43.8561002,
    "lng": -79.3370188,
    "dwell_time": 18.83,
    "Average": 12.46288889,
    "indicator": 2.203731615,
    "congestion_level": "Very High"
  },
  {
    "date": "2025-07-11 0:00:00",
    "company": "CN",
    "location": "Memphis, TN",
    "Yard": "Memphis, TN",
    "lat": 35.1495343,
    "lng": -90.0489801,
    "dwell_time": 26.24,
    "Average": 21.48,
    "indicator": 1.315236741,
    "congestion_level": "High"
  },
  {
    "date": "2025-07-11 0:00:00",
    "company": "CN",
    "location": "Proctor, MN",
    "Yard": "Proctor, MN",
    "lat": 46.7471638,
    "lng": -92.2254695,
    "dwell_time": 9.87,
    "Average": 8.936666667,
    "indicator": 0.3634341931,
    "congestion_level": "Average"
  },
  {
    "date": "2025-07-11 0:00:00",
    "company": "CN",
    "location": "Stevens Point, WI",
    "Yard": "Stevens Point, WI",
    "lat": 44.5235792,
    "lng": -89.574563,
    "dwell_time": 21.27,
    "Average": 21.09044444,
    "indicator": 0.07816562107,
    "congestion_level": "Average"
  },
  {
    "date": "2025-07-11 0:00:00",
    "company": "CPKC",
    "location": "Bensenville, IL",
    "Yard": "Bensenville, IL",
    "lat": 41.9550296,
    "lng": -87.9400657,
    "dwell_time": 30.37,
    "Average": 31.045,
    "indicator": -0.7071067812,
    "congestion_level": "Average"
  },
  {
    "date": "2025-07-11 0:00:00",
    "company": "CPKC",
    "location": "Harvey, ND",
    "Yard": "Harvey, ND",
    "lat": 47.769723,
    "lng": -99.935404,
    "dwell_time": 18.89,
    "Average": 18.065,
    "indicator": 0.7071067812,
    "congestion_level": "Average"
  },
  {
    "date": "2025-07-11 0:00:00",
    "company": "CPKC",
    "location": "Jackson, MS",
    "Yard": "Jackson, MS",
    "lat": 32.2987573,
    "lng": -90.1848103,
    "dwell_time": 31.48,
    "Average": 32.285,
    "indicator": -0.7071067812,
    "congestion_level": "Average"
  },
  {
    "date": "2025-07-11 0:00:00",
    "company": "CPKC",
    "location": "Kansas City, KS",
    "Yard": "Kansas City, KS",
    "lat": 39.0997265,
    "lng": -94.5785667,
    "dwell_time": 22.28,
    "Average": 25.36,
    "indicator": -0.7071067812,
    "congestion_level": "Average"
  },
  {
    "date": "2025-07-11 0:00:00",
    "company": "CPKC",
    "location": "Laredo, TX",
    "Yard": "Laredo, TX",
    "lat": 27.5035613,
    "lng": -99.5075519,
    "dwell_time": 4.9,
    "Average": 5.26,
    "indicator": -0.7071067812,
    "congestion_level": "Average"
  },
  {
    "date": "2025-07-11 0:00:00",
    "company": "CPKC",
    "location": "Meridian, MS",
    "Yard": "Meridian, MS",
    "lat": 32.3610377,
    "lng": -88.6991015,
    "dwell_time": 6.47,
    "Average": 6.645,
    "indicator": -0.7071067812,
    "congestion_level": "Average"
  },
  {
    "date": "2025-07-11 0:00:00",
    "company": "CPKC",
    "location": "Nahant, IA",
    "Yard": "Nahant, IA",
    "lat": 41.4875323,
    "lng": -90.6379164,
    "dwell_time": 24.79,
    "Average": 25.845,
    "indicator": -0.7071067812,
    "congestion_level": "Average"
  },
  {
    "date": "2025-07-11 0:00:00",
    "company": "CPKC",
    "location": "New Orleans, LA",
    "Yard": "New Orleans, LA",
    "lat": 29.9725656,
    "lng": -90.1399969,
    "dwell_time": 28.05,
    "Average": 27.85,
    "indicator": 0.7071067812,
    "congestion_level": "Average"
  },
  {
    "date": "2025-07-11 0:00:00",
    "company": "CPKC",
    "location": "Shreveport, LA",
    "Yard": "Shreveport, LA",
    "lat": 32.5251516,
    "lng": -93.7501789,
    "dwell_time": 61.48,
    "Average": 59.86,
    "indicator": 0.7071067812,
    "congestion_level": "Average"
  },
  {
    "date": "2025-07-11 0:00:00",
    "company": "CPKC",
    "location": "St. Paul, MN",
    "Yard": "St. Paul, MN",
    "lat": 44.9537029,
    "lng": -93.0899578,
    "dwell_time": 19.59,
    "Average": 20.675,
    "indicator": -0.7071067812,
    "congestion_level": "Average"
  },
  {
    "date": "2025-07-11 0:00:00",
    "company": "CSX",
    "location": "Baltimore, MD",
    "Yard": "Baltimore, MD",
    "lat": 39.2903848,
    "lng": -76.6121893,
    "dwell_time": 17.91,
    "Average": 15.08535714,
    "indicator": 1.127727011,
    "congestion_level": "High"
  },
  {
    "date": "2025-07-11 0:00:00",
    "company": "CSX",
    "location": "Chicago, IL",
    "Yard": "Chicago, IL",
    "lat": 41.8781136,
    "lng": -87.6297982,
    "dwell_time": 16.45,
    "Average": 13.86242424,
    "indicator": 1.558149823,
    "congestion_level": "High"
  },
  {
    "date": "2025-07-11 0:00:00",
    "company": "CSX",
    "location": "Cincinnati, OH",
    "Yard": "Cincinnati, OH",
    "lat": 39.1031182,
    "lng": -84.5120196,
    "dwell_time": 24.06,
    "Average": 26.92777778,
    "indicator": -0.7461290681,
    "congestion_level": "Average"
  },
  {
    "date": "2025-07-11 0:00:00",
    "company": "CSX",
    "location": "Indianapolis, IN",
    "Yard": "Indianapolis, IN",
    "lat": 39.768403,
    "lng": -86.158068,
    "dwell_time": 28.0,
    "Average": 29.39866667,
    "indicator": -0.2487541467,
    "congestion_level": "Average"
  },
  {
    "date": "2025-07-11 0:00:00",
    "company": "CSX",
    "location": "Jacksonville, FL",
    "Yard": "Jacksonville, FL",
    "lat": 30.3321838,
    "lng": -81.655651,
    "dwell_time": 19.81,
    "Average": 19.19878788,
    "indicator": 0.2394775455,
    "congestion_level": "Average"
  },
  {
    "date": "2025-07-11 0:00:00",
    "company": "CSX",
    "location": "Louisville, KY",
    "Yard": "Louisville, KY",
    "lat": 38.2526647,
    "lng": -85.7584557,
    "dwell_time": 24.41,
    "Average": 30.28488889,
    "indicator": -0.6515709087,
    "congestion_level": "Average"
  },
  {
    "date": "2025-07-11 0:00:00",
    "company": "CSX",
    "location": "Nashville, TN",
    "Yard": "Nashville, TN",
    "lat": 36.1626638,
    "lng": -86.7816016,
    "dwell_time": 28.38,
    "Average": 31.08244444,
    "indicator": -0.2883241084,
    "congestion_level": "Average"
  },
  {
    "date": "2025-07-11 0:00:00",
    "company": "CSX",
    "location": "Rocky Mount, NC",
    "Yard": "Rocky Mount, NC",
    "lat": 35.9144906,
    "lng": -77.8064608,
    "dwell_time": null,
    "Average": 22.76,
    "indicator": null,
    "congestion_level": "Very High"
  },
  {
    "date": "2025-07-11 0:00:00",
    "company": "CSX",
    "location": "Selkirk, NY",
    "Yard": "Selkirk, NY",
    "lat": 42.5319998,
    "lng": -73.7985008,
    "dwell_time": 25.5,
    "Average": 27.36888889,
    "indicator": -0.4332960285,
    "congestion_level": "Average"
  },
  {
    "date": "2025-07-11 0:00:00",
    "company": "CSX",
    "location": "Toledo, OH",
    "Yard": "Toledo, OH",
    "lat": 41.6528052,
    "lng": -83.5378674,
    "dwell_time": 27.11,
    "Average": 33.71044444,
    "indicator": -0.9230947244,
    "congestion_level": "Average"
  },
  {
    "date": "2025-07-11 0:00:00",
    "company": "CSX",
    "location": "Waycross, GA",
    "Yard": "Waycross, GA",
    "lat": 31.2135511,
    "lng": -82.3540178,
    "dwell_time": 24.13,
    "Average": 24.60777778,
    "indicator": -0.1063199529,
    "congestion_level": "Average"
  },
  {
    "date": "2025-07-11 0:00:00",
    "company": "NS",
    "location": "Allentown, PA",
    "Yard": "Allentown, PA",
    "lat": 40.6022939,
    "lng": -75.4714098,
    "dwell_time": null,
    "Average": 22.73636364,
    "indicator": null,
    "congestion_level": "Very High"
  },
  {
    "date": "2025-07-11 0:00:00",
    "company": "NS",
    "location": "Atlanta, GA",
    "Yard": "Atlanta, GA",
    "lat": 33.7489954,
    "lng": -84.3879824,
    "dwell_time": 18.3,
    "Average": 17.3,
    "indicator": 0.260766068,
    "congestion_level": "Average"
  },
  {
    "date": "2025-07-11 0:00:00",
    "company": "NS",
    "location": "Bellevue, OH",
    "Yard": "Bellevue, OH",
    "lat": 41.2736647,
    "lng": -82.8415763,
    "dwell_time": 28.6,
    "Average": 28.61333333,
    "indicator": -0.003023192071,
    "congestion_level": "Average"
  },
  {
    "date": "2025-07-11 0:00:00",
    "company": "NS",
    "location": "Birmingham, AL",
    "Yard": "Birmingham, AL",
    "lat": 33.5185892,
    "lng": -86.8103567,
    "dwell_time": 27.0,
    "Average": 31.35111111,
    "indicator": -0.6056137406,
    "congestion_level": "Average"
  },
  {
    "date": "2025-07-11 0:00:00",
    "company": "NS",
    "location": "Chattanooga, TN",
    "Yard": "Chattanooga, TN",
    "lat": 35.0456297,
    "lng": -85.3096801,
    "dwell_time": 24.2,
    "Average": 32.09777778,
    "indicator": -0.8799675087,
    "congestion_level": "Average"
  },
  {
    "date": "2025-07-11 0:00:00",
    "company": "NS",
    "location": "Pittsburgh, PA",
    "Yard": "Pittsburgh, PA",
    "lat": 40.4406248,
    "lng": -79.9958864,
    "dwell_time": 27.9,
    "Average": 27.7,
    "indicator": 0.04704846483,
    "congestion_level": "Average"
  },
  {
    "date": "2025-07-11 0:00:00",
    "company": "NS",
    "location": "Decatur, IL",
    "Yard": "Decatur, IL",
    "lat": 39.8403147,
    "lng": -88.9548001,
    "dwell_time": 27.2,
    "Average": 24.86444444,
    "indicator": 0.3820013186,
    "congestion_level": "Average"
  },
  {
    "date": "2025-07-11 0:00:00",
    "company": "NS",
    "location": "Elkhart, IN",
    "Yard": "Elkhart, IN",
    "lat": 41.6819935,
    "lng": -85.9766671,
    "dwell_time": 23.3,
    "Average": 27.85111111,
    "indicator": -0.9500466313,
    "congestion_level": "Average"
  },
  {
    "date": "2025-07-11 0:00:00",
    "company": "NS",
    "location": "Harrisburg, PA",
    "Yard": "Harrisburg, PA",
    "lat": 40.3028161,
    "lng": -76.8928454,
    "dwell_time": 11.8,
    "Average": 12.72173913,
    "indicator": -0.440746276,
    "congestion_level": "Average"
  },
  {
    "date": "2025-07-11 0:00:00",
    "company": "NS",
    "location": "Linwood, NC",
    "Yard": "Linwood, NC",
    "lat": 35.7506938,
    "lng": -80.3178305,
    "dwell_time": null,
    "Average": 26.75909091,
    "indicator": null,
    "congestion_level": "Very High"
  },
  {
    "date": "2025-07-11 0:00:00",
    "company": "NS",
    "location": "Macon, GA",
    "Yard": "Macon, GA",
    "lat": 32.8406946,
    "lng": -83.6324022,
    "dwell_time": 28.2,
    "Average": 28.34222222,
    "indicator": -0.0283662898,
    "congestion_level": "Average"
  },
  {
    "date": "2025-07-11 0:00:00",
    "company": "NS",
    "location": "Roanoke, VA",
    "Yard": "Roanoke, VA",
    "lat": 37.2739515,
    "lng": -79.9510329,
    "dwell_time": 41.7,
    "Average": 33.43043478,
    "indicator": 0.8509208145,
    "congestion_level": "Average"
  },
  {
    "date": "2025-07-11 0:00:00",
    "company": "UP",
    "location": "Proviso, IL",
    "Yard": "Proviso, IL",
    "lat": 41.8653429,
    "lng": -87.8721439,
    "dwell_time": 22.2,
    "Average": 28.14,
    "indicator": -1.048057611,
    "congestion_level": "Low"
  },
  {
    "date": "2025-07-11 0:00:00",
    "company": "UP",
    "location": "Fort Worth, TX",
    "Yard": "Fort Worth, TX",
    "lat": 32.7554883,
    "lng": -97.3307658,
    "dwell_time": 20.3,
    "Average": 27.72888889,
    "indicator": -1.463055772,
    "congestion_level": "Low"
  },
  {
    "date": "2025-07-11 0:00:00",
    "company": "UP",
    "location": "Englewood, TX",
    "Yard": "Englewood, TX",
    "lat": 29.7983826,
    "lng": -95.3079662,
    "dwell_time": 23.2,
    "Average": 27.31111111,
    "indicator": -0.8379699786,
    "congestion_level": "Average"
  },
  {
    "date": "2025-07-11 0:00:00",
    "company": "UP",
    "location": "Livonia, LA",
    "Yard": "Livonia, LA",
    "lat": 30.5590803,
    "lng": -91.555945,
    "dwell_time": 23.4,
    "Average": 26.56888889,
    "indicator": -0.7429305565,
    "congestion_level": "Average"
  },
  {
    "date": "2025-07-11 0:00:00",
    "company": "UP",
    "location": "North Little Rock, AR",
    "Yard": "North Little Rock, AR",
    "lat": 34.769536,
    "lng": -92.2670941,
    "dwell_time": 24.2,
    "Average": 24.8,
    "indicator": -0.1235116138,
    "congestion_level": "Average"
  },
  {
    "date": "2025-07-11 0:00:00",
    "company": "UP",
    "location": "North Platte East, NE",
    "Yard": "North Platte East, NE",
    "lat": 41.1402759,
    "lng": -100.7601454,
    "dwell_time": null,
    "Average": 26.43461538,
    "indicator": null,
    "congestion_level": "Very High"
  },
  {
    "date": "2025-07-11 0:00:00",
    "company": "UP",
    "location": "North Platte West, NE",
    "Yard": "North Platte West, NE",
    "lat": 41.1402759,
    "lng": -100.7601454,
    "dwell_time": 19.6,
    "Average": 28.30222222,
    "indicator": -1.882840033,
    "congestion_level": "Low"
  },
  {
    "date": "2025-07-11 0:00:00",
    "company": "UP",
    "location": "Pine Bluff, AR",
    "Yard": "Pine Bluff, AR",
    "lat": 34.2284312,
    "lng": -92.0031955,
    "dwell_time": 22.8,
    "Average": 27.46222222,
    "indicator": -1.030726842,
    "congestion_level": "Low"
  },
  {
    "date": "2025-07-11 0:00:00",
    "company": "UP",
    "location": "Roseville, CA",
    "Yard": "Roseville, CA",
    "lat": 38.7521235,
    "lng": -121.2880059,
    "dwell_time": 19.8,
    "Average": 27.62222222,
    "indicator": -1.398245919,
    "congestion_level": "Low"
  },
  {
    "date": "2025-07-11 0:00:00",
    "company": "UP",
    "location": "Anthony, NM",
    "Yard": "Anthony, NM",
    "lat": 31.90796865,
    "lng": -106.7478105,
    "dwell_time": 22.2,
    "Average": 19.84210526,
    "indicator": 0.803967098,
    "congestion_level": "Average"
  },
  {
    "date": "2025-07-11 0:00:00",
    "company": "UP",
    "location": "West Colton, CA",
    "Yard": "West Colton, CA",
    "lat": 34.0669931,
    "lng": -117.3529857,
    "dwell_time": 21.4,
    "Average": 31.12666667,
    "indicator": -1.371943717,
    "congestion_level": "Low"
  },
  {
    "date": "5/7/2025",
    "company": "CPKC",
    "location": "Albany, NY",
    "Yard": "Albany, NY",
    "lat": 42.63336715,
    "lng": -73.7611767,
    "dwell_time": 14.919077,
    "Average": null,
    "indicator": null,
    "congestion_level": "Low"
  },
  {
    "date": "5/7/2025",
    "company": "CPKC",
    "location": "Glenwood, MN",
    "Yard": "Glenwood, MN",
    "lat": 45.64988169,
    "lng": -95.36640325,
    "dwell_time": 22.406757,
    "Average": null,
    "indicator": null,
    "congestion_level": "Average"
  },
  {
    "date": "5/7/2025",
    "company": "CPKC",
    "location": "La Crosse, WI",
    "Yard": "La Crosse, WI",
    "lat": 43.84106914,
    "lng": -91.23753209,
    "dwell_time": 26.699513,
    "Average": null,
    "indicator": null,
    "congestion_level": "High"
  },
  {
    "date": "5/7/2025",
    "company": "CPKC",
    "location": "Mason City, IA",
    "Yard": "Mason City, IA",
    "lat": 43.1417676,
    "lng": -93.19591338,
    "dwell_time": 20.968754,
    "Average": null,
    "indicator": null,
    "congestion_level": "Average"
  },
  {
    "date": "5/7/2025",
    "company": "CPKC",
    "location": "Milwaukee, WI",
    "Yard": "Milwaukee, WI",
    "lat": 43.02753366,
    "lng": -87.9349538,
    "dwell_time": 30.099702,
    "Average": null,
    "indicator": null,
    "congestion_level": "Very High"
  },
  {
    "date": "5/7/2025",
    "company": "CPKC",
    "location": "Saratoga Springs, NY",
    "Yard": "Saratoga Springs, NY",
    "lat": 43.06684433,
    "lng": -73.8161988,
    "dwell_time": 17.332243,
    "Average": null,
    "indicator": null,
    "congestion_level": "Low"
  },
  {
    "date": "5/7/2025",
    "company": "CPKC",
    "location": "Wylie, TX",
    "Yard": "Wylie, TX",
    "lat": 33.02619265,
    "lng": -96.50913366,
    "dwell_time": 11.15,
    "Average": null,
    "indicator": null,
    "congestion_level": "Low"
  },
  {
    "date": "5/7/2025",
    "company": "CPKC",
    "location": "Artesia, MS",
    "Yard": "Artesia, MS",
    "lat": 33.41421071,
    "lng": -88.64338396,
    "dwell_time": 10.6,
    "Average": null,
    "indicator": null,
    "congestion_level": "Low"
  },
  {
    "date": "5/7/2025",
    "company": "CPKC",
    "location": "Baton Rouge, LA",
    "Yard": "Baton Rouge, LA",
    "lat": 30.46068888,
    "lng": -91.17492516,
    "dwell_time": 9.09,
    "Average": null,
    "indicator": null,
    "congestion_level": "Very Low"
  },
  {
    "date": "5/7/2025",
    "company": "CPKC",
    "location": "Whittington, LA",
    "Yard": "Whittington, LA",
    "lat": 31.18994913,
    "lng": -92.34272999,
    "dwell_time": 17.69,
    "Average": null,
    "indicator": null,
    "congestion_level": "Low"
  },
  {
    "date": "5/7/2025",
    "company": "CPKC",
    "location": "Beaumont, TX",
    "Yard": "Beaumont, TX",
    "lat": 30.04787963,
    "lng": -94.07457009,
    "dwell_time": 17.05,
    "Average": null,
    "indicator": null,
    "congestion_level": "Low"
  }
]