[
  {
    "date": "",
    "company": "Unknown",
    "location": "Barstow, CA",
    "lat": 34.8957957,
    "lng": -117.0172826,
    "congestion_score": 0.0,
    "congestion_level": "Average"
  },
  {
    "date": "",
    "company": "Unknown",
    "location": "Denver, CO",
    "lat": 39.7392358,
    "lng": -104.990251,
    "congestion_score": 0.0,
    "congestion_level": "Average"
  },
  {
    "date": "",
    "company": "Unknown",
    "location": "Fort Worth, TX",
    "lat": 32.7554883,
    "lng": -97.3307658,
    "congestion_score": 0.0,
    "congestion_level": "Average"
  },
  {
    "date": "",
    "company": "Unknown",
    "location": "Galesburg, IL",
    "lat": 40.9478158,
    "lng": -90.3712395,
    "congestion_score": 0.0,
    "congestion_level": "Average"
  },
  {
    "date": "",
    "company": "Unknown",
    "location": "Kansas City, KS",
    "lat": 39.0997265,
    "lng": -94.5785667,
    "congestion_score": 0.0,
    "congestion_level": "Average"
  },
  {
    "date": "",
    "company": "Unknown",
    "location": "Lincoln, NE",
    "lat": 40.813616,
    "lng": -96.7025955,
    "congestion_score": 0.0,
    "congestion_level": "Average"
  },
  {
    "date": "",
    "company": "Unknown",
    "location": "Memphis, TN",
    "lat": 35.1495343,
    "lng": -90.0489801,
    "congestion_score": 0.0,
    "congestion_level": "Average"
  },
  {
    "date": "",
    "company": "Unknown",
    "location": "Northtown, MN",
    "lat": 45.128403,
    "lng": -93.259694,
    "congestion_score": 0.0,
    "congestion_level": "Average"
  },
  {
    "date": "",
    "company": "Unknown",
    "location": "Pasco, WA",
    "lat": 46.2305049,
    "lng": -119.0922316,
    "congestion_score": 0.0,
    "congestion_level": "Average"
  },
  {
    "date": "",
    "company": "Unknown",
    "location": "Tulsa, OK",
    "lat": 36.1539816,
    "lng": -95.992775,
    "congestion_score": 0.0,
    "congestion_level": "Average"
  },
  {
    "date": "",
    "company": "Unknown",
    "location": "Baton Rouge, LA",
    "lat": 30.4514677,
    "lng": -91.1871466,
    "congestion_score": 0.0,
    "congestion_level": "Average"
  },
  {
    "date": "",
    "company": "Unknown",
    "location": "Champaign, IL",
    "lat": 40.1164204,
    "lng": -88.2433829,
    "congestion_score": 0.0,
    "congestion_level": "Average"
  },
  {
    "date": "",
    "company": "Unknown",
    "location": "Fond Du Lac, WI",
    "lat": 43.7730448,
    "lng": -88.4470508,
    "congestion_score": 0.0,
    "congestion_level": "Average"
  },
  {
    "date": "",
    "company": "Unknown",
    "location": "Geismar, LA",
    "lat": 30.2193468,
    "lng": -91.0065088,
    "congestion_score": 0.0,
    "congestion_level": "Average"
  },
  {
    "date": "",
    "company": "Unknown",
    "location": "Jackson, MS",
    "lat": 32.2987573,
    "lng": -90.1848103,
    "congestion_score": 0.0,
    "congestion_level": "Average"
  },
  {
    "date": "",
    "company": "Unknown",
    "location": "Gary, IN",
    "lat": 41.5933696,
    "lng": -87.3464271,
    "congestion_score": 0.0,
    "congestion_level": "Average"
  },
  {
    "date": "",
    "company": "Unknown",
    "location": "Markham, ON",
    "lat": 43.8561002,
    "lng": -79.3370188,
    "congestion_score": 0.0,
    "congestion_level": "Average"
  },
  {
    "date": "",
    "company": "Unknown",
    "location": "Memphis, TN",
    "lat": 35.1495343,
    "lng": -90.0489801,
    "congestion_score": 0.0,
    "congestion_level": "Average"
  },
  {
    "date": "",
    "company": "Unknown",
    "location": "Proctor, MN",
    "lat": 46.7471638,
    "lng": -92.2254695,
    "congestion_score": 0.0,
    "congestion_level": "Average"
  },
  {
    "date": "",
    "company": "Unknown",
    "location": "Stevens Point, WI",
    "lat": 44.5235792,
    "lng": -89.574563,
    "congestion_score": 0.0,
    "congestion_level": "Average"
  },
  {
    "date": "",
    "company": "Unknown",
    "location": "Bensenville, IL",
    "lat": 41.9550296,
    "lng": -87.9400657,
    "congestion_score": 0.0,
    "congestion_level": "Average"
  },
  {
    "date": "",
    "company": "Unknown",
    "location": "Harvey, ND",
    "lat": 47.769723,
    "lng": -99.935404,
    "congestion_score": 0.0,
    "congestion_level": "Average"
  },
  {
    "date": "",
    "company": "Unknown",
    "location": "Jackson, MS",
    "lat": 32.2987573,
    "lng": -90.1848103,
    "congestion_score": 0.0,
    "congestion_level": "Average"
  },
  {
    "date": "",
    "company": "Unknown",
    "location": "Kansas City, KS",
    "lat": 39.0997265,
    "lng": -94.5785667,
    "congestion_score": 0.0,
    "congestion_level": "Average"
  },
  {
    "date": "",
    "company": "Unknown",
    "location": "Laredo, TX",
    "lat": 27.5035613,
    "lng": -99.5075519,
    "congestion_score": 0.0,
    "congestion_level": "Average"
  },
  {
    "date": "",
    "company": "Unknown",
    "location": "Meridian, MS",
    "lat": 32.3610377,
    "lng": -88.6991015,
    "congestion_score": 0.0,
    "congestion_level": "Average"
  },
  {
    "date": "",
    "company": "Unknown",
    "location": "Nahant, IA",
    "lat": 41.4875323,
    "lng": -90.6379164,
    "congestion_score": 0.0,
    "congestion_level": "Average"
  },
  {
    "date": "",
    "company": "Unknown",
    "location": "New Orleans, LA",
    "lat": 29.9725656,
    "lng": -90.1399969,
    "congestion_score": 0.0,
    "congestion_level": "Average"
  },
  {
    "date": "",
    "company": "Unknown",
    "location": "Shreveport, LA",
    "lat": 32.5251516,
    "lng": -93.7501789,
    "congestion_score": 0.0,
    "congestion_level": "Average"
  },
  {
    "date": "",
    "company": "Unknown",
    "location": "St Paul, MN",
    "lat": 44.9537029,
    "lng": -93.0899578,
    "congestion_score": 0.0,
    "congestion_level": "Average"
  },
  {
    "date": "",
    "company": "Unknown",
    "location": "Baltimore, MD",
    "lat": 39.2903848,
    "lng": -76.6121893,
    "congestion_score": 0.0,
    "congestion_level": "Average"
  },
  {
    "date": "",
    "company": "Unknown",
    "location": "Chicago, IL",
    "lat": 41.8781136,
    "lng": -87.6297982,
    "congestion_score": 0.0,
    "congestion_level": "Average"
  },
  {
    "date": "",
    "company": "Unknown",
    "location": "Cincinnati, OH",
    "lat": 39.1031182,
    "lng": -84.5120196,
    "congestion_score": 0.0,
    "congestion_level": "Average"
  },
  {
    "date": "",
    "company": "Unknown",
    "location": "Indianapolis, IN",
    "lat": 39.768403,
    "lng": -86.158068,
    "congestion_score": 0.0,
    "congestion_level": "Average"
  },
  {
    "date": "",
    "company": "Unknown",
    "location": "Jacksonville, FL",
    "lat": 30.3321838,
    "lng": -81.655651,
    "congestion_score": 0.0,
    "congestion_level": "Average"
  },
  {
    "date": "",
    "company": "Unknown",
    "location": "Louisville, KY",
    "lat": 38.2526647,
    "lng": -85.7584557,
    "congestion_score": 0.0,
    "congestion_level": "Average"
  },
  {
    "date": "",
    "company": "Unknown",
    "location": "Nashville, TN",
    "lat": 36.1626638,
    "lng": -86.7816016,
    "congestion_score": 0.0,
    "congestion_level": "Average"
  },
  {
    "date": "",
    "company": "Unknown",
    "location": "Rocky Mount, NC",
    "lat": 35.9144906,
    "lng": -77.8064608,
    "congestion_score": 0.0,
    "congestion_level": "Average"
  },
  {
    "date": "",
    "company": "Unknown",
    "location": "Selkirk, NY",
    "lat": 42.5319998,
    "lng": -73.7985008,
    "congestion_score": 0.0,
    "congestion_level": "Average"
  },
  {
    "date": "",
    "company": "Unknown",
    "location": "Toledo, OH",
    "lat": 41.6528052,
    "lng": -83.5378674,
    "congestion_score": 0.0,
    "congestion_level": "Average"
  },
  {
    "date": "",
    "company": "Unknown",
    "location": "Waycross, GA",
    "lat": 31.2135511,
    "lng": -82.3540178,
    "congestion_score": 0.0,
    "congestion_level": "Average"
  },
  {
    "date": "",
    "company": "Unknown",
    "location": "Allentown, PA",
    "lat": 40.6022939,
    "lng": -75.4714098,
    "congestion_score": 0.0,
    "congestion_level": "Average"
  },
  {
    "date": "",
    "company": "Unknown",
    "location": "Atlanta, GA",
    "lat": 33.7489954,
    "lng": -84.3879824,
    "congestion_score": 0.0,
    "congestion_level": "Average"
  },
  {
    "date": "",
    "company": "Unknown",
    "location": "Bellevue, OH",
    "lat": 41.2736647,
    "lng": -82.8415763,
    "congestion_score": 0.0,
    "congestion_level": "Average"
  },
  {
    "date": "",
    "company": "Unknown",
    "location": "Birmingham, AL",
    "lat": 33.5185892,
    "lng": -86.8103567,
    "congestion_score": 0.0,
    "congestion_level": "Average"
  },
  {
    "date": "",
    "company": "Unknown",
    "location": "Chattanooga, TN",
    "lat": 35.0456297,
    "lng": -85.3096801,
    "congestion_score": 0.0,
    "congestion_level": "Average"
  },
  {
    "date": "",
    "company": "Unknown",
    "location": "Pittsburgh, PA",
    "lat": 40.4406248,
    "lng": -79.9958864,
    "congestion_score": 0.0,
    "congestion_level": "Average"
  },
  {
    "date": "",
    "company": "Unknown",
    "location": "Decatur, IL",
    "lat": 39.8403147,
    "lng": -88.9548001,
    "congestion_score": 0.0,
    "congestion_level": "Average"
  },
  {
    "date": "",
    "company": "Unknown",
    "location": "Elkhart, IN",
    "lat": 41.6819935,
    "lng": -85.9766671,
    "congestion_score": 0.0,
    "congestion_level": "Average"
  },
  {
    "date": "",
    "company": "Unknown",
    "location": "Harrisburg, PA",
    "lat": 40.3028161,
    "lng": -76.8928454,
    "congestion_score": 0.0,
    "congestion_level": "Average"
  },
  {
    "date": "",
    "company": "Unknown",
    "location": "Linwood, NC",
    "lat": 35.7506938,
    "lng": -80.3178305,
    "congestion_score": 0.0,
    "congestion_level": "Average"
  },
  {
    "date": "",
    "company": "Unknown",
    "location": "Macon, GA",
    "lat": 32.8406946,
    "lng": -83.6324022,
    "congestion_score": 0.0,
    "congestion_level": "Average"
  },
  {
    "date": "",
    "company": "Unknown",
    "location": "Roanoke, VA",
    "lat": 37.2739515,
    "lng": -79.9510329,
    "congestion_score": 0.0,
    "congestion_level": "Average"
  },
  {
    "date": "",
    "company": "Unknown",
    "location": "Proviso, IL",
    "lat": 41.8653429,
    "lng": -87.8721439,
    "congestion_score": 0.0,
    "congestion_level": "Average"
  },
  {
    "date": "",
    "company": "Unknown",
    "location": "Fort Worth, TX",
    "lat": 32.7554883,
    "lng": -97.3307658,
    "congestion_score": 0.0,
    "congestion_level": "Average"
  },
  {
    "date": "",
    "company": "Unknown",
    "location": "Englewood, TX",
    "lat": 29.7983826,
    "lng": -95.3079662,
    "congestion_score": 0.0,
    "congestion_level": "Average"
  },
  {
    "date": "",
    "company": "Unknown",
    "location": "Livonia, LA",
    "lat": 30.5590803,
    "lng": -91.555945,
    "congestion_score": 0.0,
    "congestion_level": "Average"
  },
  {
    "date": "",
    "company": "Unknown",
    "location": "North Little Rock, AR",
    "lat": 34.769536,
    "lng": -92.2670941,
    "congestion_score": 0.0,
    "congestion_level": "Average"
  },
  {
    "date": "",
    "company": "Unknown",
    "location": "North Platte East, NE",
    "lat": 41.1402759,
    "lng": -100.7601454,
    "congestion_score": 0.0,
    "congestion_level": "Average"
  },
  {
    "date": "",
    "company": "Unknown",
    "location": "North Platte West, NE",
    "lat": 41.1402759,
    "lng": -100.7601454,
    "congestion_score": 0.0,
    "congestion_level": "Average"
  },
  {
    "date": "",
    "company": "Unknown",
    "location": "Pine Bluff, AR",
    "lat": 34.2284312,
    "lng": -92.0031955,
    "congestion_score": 0.0,
    "congestion_level": "Average"
  },
  {
    "date": "",
    "company": "Unknown",
    "location": "Roseville, CA",
    "lat": 38.7521235,
    "lng": -121.2880059,
    "congestion_score": 0.0,
    "congestion_level": "Average"
  },
  {
    "date": "",
    "company": "Unknown",
    "location": "Anthony, NM",
    "lat": 31.90796865,
    "lng": -106.7478105,
    "congestion_score": 0.0,
    "congestion_level": "Average"
  },
  {
    "date": "",
    "company": "Unknown",
    "location": "West Colton, CA",
    "lat": 34.0669931,
    "lng": -117.3529857,
    "congestion_score": 0.0,
    "congestion_level": "Average"
  }
]