[
  {
    "date": "2025-06-27 0:00:00",
    "company": "BNSF",
    "location": "Barstow, CA",
    "Yard": "Barstow, CA",
    "lat": 34.8957957,
    "lng": -117.0172826,
    "dwell_time": 25.1,
    "Average": 35.83191489,
    "indicator": -1.545298945,
    "congestion_level": "Low"
  },
  {
    "date": "2025-06-27 0:00:00",
    "company": "BNSF",
    "location": "Denver, CO",
    "Yard": "Denver, CO",
    "lat": 39.7392358,
    "lng": -104.990251,
    "dwell_time": 25.7,
    "Average": 30.93829787,
    "indicator": -1.246176756,
    "congestion_level": "Low"
  },
  {
    "date": "2025-06-27 0:00:00",
    "company": "UP",
    "location": "Fort Worth, TX",
    "Yard": "Fort Worth, TX",
    "lat": 32.7554883,
    "lng": -97.3307658,
    "dwell_time": 20.2,
    "Average": 26.23191489,
    "indicator": -1.183340718,
    "congestion_level": "Low"
  },
  {
    "date": "2025-06-27 0:00:00",
    "company": "BNSF",
    "location": "Galesburg, IL",
    "Yard": "Galesburg, IL",
    "lat": 40.9478158,
    "lng": -90.3712395,
    "dwell_time": 26.6,
    "Average": 30.89787234,
    "indicator": -1.180474469,
    "congestion_level": "Low"
  },
  {
    "date": "2025-06-27 0:00:00",
    "company": "CPKC",
    "location": "Kansas City, KS",
    "Yard": "Kansas City, KS",
    "lat": 39.0997265,
    "lng": -94.5785667,
    "dwell_time": 27.73,
    "Average": 39.5475,
    "indicator": -1.26772335,
    "congestion_level": "Low"
  },
  {
    "date": "2025-06-27 0:00:00",
    "company": "BNSF",
    "location": "Lincoln, NE",
    "Yard": "Lincoln, NE",
    "lat": 40.813616,
    "lng": -96.7025955,
    "dwell_time": 25.7,
    "Average": 30.04468085,
    "indicator": -0.8130781862,
    "congestion_level": "Average"
  },
  {
    "date": "2025-06-27 0:00:00",
    "company": "CN",
    "location": "Memphis, TN",
    "Yard": "Memphis, TN",
    "lat": 35.1495343,
    "lng": -90.0489801,
    "dwell_time": 28.15,
    "Average": 22.48340426,
    "indicator": 1.724971451,
    "congestion_level": "High"
  },
  {
    "date": "2025-06-27 0:00:00",
    "company": "BNSF",
    "location": "Northtown, MN",
    "Yard": "Northtown, MN",
    "lat": 45.128403,
    "lng": -93.259694,
    "dwell_time": 28.0,
    "Average": 30.64042553,
    "indicator": -0.6918797331,
    "congestion_level": "Average"
  },
  {
    "date": "2025-06-27 0:00:00",
    "company": "BNSF",
    "location": "Pasco, WA",
    "Yard": "Pasco, WA",
    "lat": 46.2305049,
    "lng": -119.0922316,
    "dwell_time": 22.2,
    "Average": 28.73191489,
    "indicator": -1.698886235,
    "congestion_level": "Low"
  },
  {
    "date": "2025-06-27 0:00:00",
    "company": "BNSF",
    "location": "Tulsa, OK",
    "Yard": "Tulsa, OK",
    "lat": 36.1539816,
    "lng": -95.992775,
    "dwell_time": 26.6,
    "Average": 26.23404255,
    "indicator": 0.1003843783,
    "congestion_level": "Average"
  },
  {
    "date": "2025-06-27 0:00:00",
    "company": "CN",
    "location": "Baton Rouge, LA",
    "Yard": "Baton Rouge, LA",
    "lat": 30.4514677,
    "lng": -91.1871466,
    "dwell_time": 19.87,
    "Average": 15.06829787,
    "indicator": 1.478699896,
    "congestion_level": "High"
  },
  {
    "date": "2025-06-27 0:00:00",
    "company": "CN",
    "location": "Champaign, IL",
    "Yard": "Champaign, IL",
    "lat": 40.1164204,
    "lng": -88.2433829,
    "dwell_time": 13.85,
    "Average": 18.83382979,
    "indicator": -1.209545433,
    "congestion_level": "Low"
  },
  {
    "date": "2025-06-27 0:00:00",
    "company": "CN",
    "location": "Fond Du Lac, WI",
    "Yard": "Fond Du Lac, WI",
    "lat": 43.7730448,
    "lng": -88.4470508,
    "dwell_time": 21.32,
    "Average": 21.01425532,
    "indicator": 0.09400203362,
    "congestion_level": "Average"
  },
  {
    "date": "2025-06-27 0:00:00",
    "company": "CN",
    "location": "Geismar, LA",
    "Yard": "Geismar, LA",
    "lat": 30.2193468,
    "lng": -91.0065088,
    "dwell_time": 18.14,
    "Average": 15.17212766,
    "indicator": 1.363455993,
    "congestion_level": "High"
  },
  {
    "date": "2025-06-27 0:00:00",
    "company": "CPKC",
    "location": "Jackson, MS",
    "Yard": "Jackson, MS",
    "lat": 32.2987573,
    "lng": -90.1848103,
    "dwell_time": 27.31,
    "Average": 35.07,
    "indicator": -1.46844213,
    "congestion_level": "Low"
  },
  {
    "date": "2025-06-27 0:00:00",
    "company": "CN",
    "location": "Gary, IN",
    "Yard": "Gary, IN",
    "lat": 41.5933696,
    "lng": -87.3464271,
    "dwell_time": 26.66,
    "Average": 23.39787234,
    "indicator": 1.20518535,
    "congestion_level": "High"
  },
  {
    "date": "2025-06-27 0:00:00",
    "company": "CN",
    "location": "Markham, ON",
    "Yard": "Markham, ON",
    "lat": 43.8561002,
    "lng": -79.3370188,
    "dwell_time": 22.3,
    "Average": 12.31085106,
    "indicator": 3.671495505,
    "congestion_level": "Very High"
  },
  {
    "date": "2025-06-27 0:00:00",
    "company": "CN",
    "location": "Proctor, MN",
    "Yard": "Proctor, MN",
    "lat": 46.7471638,
    "lng": -92.2254695,
    "dwell_time": 8.89,
    "Average": 8.54,
    "indicator": 0.1452184324,
    "congestion_level": "Average"
  },
  {
    "date": "2025-06-27 0:00:00",
    "company": "CN",
    "location": "Stevens Point, WI",
    "Yard": "Stevens Point, WI",
    "lat": 44.5235792,
    "lng": -89.574563,
    "dwell_time": 21.25,
    "Average": 21.50595745,
    "indicator": -0.09398309162,
    "congestion_level": "Average"
  },
  {
    "date": "2025-06-27 0:00:00",
    "company": "CPKC",
    "location": "Bensenville, IL",
    "Yard": "Bensenville, IL",
    "lat": 41.9550296,
    "lng": -87.9400657,
    "dwell_time": 29.81,
    "Average": 28.1925,
    "indicator": 1.212858769,
    "congestion_level": "High"
  },
  {
    "date": "2025-06-27 0:00:00",
    "company": "CPKC",
    "location": "Harvey, ND",
    "Yard": "Harvey, ND",
    "lat": 47.769723,
    "lng": -99.935404,
    "dwell_time": 12.2,
    "Average": 19.8075,
    "indicator": -0.7920797588,
    "congestion_level": "Average"
  },
  {
    "date": "2025-06-27 0:00:00",
    "company": "CPKC",
    "location": "Laredo, TX",
    "Yard": "Laredo, TX",
    "lat": 27.5035613,
    "lng": -99.5075519,
    "dwell_time": 7.11,
    "Average": 5.4575,
    "indicator": 0.465822196,
    "congestion_level": "Average"
  },
  {
    "date": "2025-06-27 0:00:00",
    "company": "CPKC",
    "location": "Meridian, MS",
    "Yard": "Meridian, MS",
    "lat": 32.3610377,
    "lng": -88.6991015,
    "dwell_time": 6.83,
    "Average": 10.1225,
    "indicator": -0.7974588432,
    "congestion_level": "Average"
  },
  {
    "date": "2025-06-27 0:00:00",
    "company": "CPKC",
    "location": "Nahant, IA",
    "Yard": "Nahant, IA",
    "lat": 41.4875323,
    "lng": -90.6379164,
    "dwell_time": 30.0,
    "Average": 28.9775,
    "indicator": 0.9025406887,
    "congestion_level": "Average"
  },
  {
    "date": "2025-06-27 0:00:00",
    "company": "CPKC",
    "location": "New Orleans, LA",
    "Yard": "New Orleans, LA",
    "lat": 29.9725656,
    "lng": -90.1399969,
    "dwell_time": 52.4,
    "Average": 56.5175,
    "indicator": -0.5787694603,
    "congestion_level": "Average"
  },
  {
    "date": "2025-06-27 0:00:00",
    "company": "CPKC",
    "location": "Shreveport, LA",
    "Yard": "Shreveport, LA",
    "lat": 32.5251516,
    "lng": -93.7501789,
    "dwell_time": 59.75,
    "Average": 63.685,
    "indicator": -1.263042259,
    "congestion_level": "Low"
  },
  {
    "date": "2025-06-27 0:00:00",
    "company": "CPKC",
    "location": "St. Paul, MN",
    "Yard": "St. Paul, MN",
    "lat": 44.9537029,
    "lng": -93.0899578,
    "dwell_time": 20.99,
    "Average": 21.18,
    "indicator": -0.3101033564,
    "congestion_level": "Average"
  },
  {
    "date": "2025-06-27 0:00:00",
    "company": "CSX",
    "location": "Baltimore, MD",
    "Yard": "Baltimore, MD",
    "lat": 39.2903848,
    "lng": -76.6121893,
    "dwell_time": 17.53,
    "Average": 14.70866667,
    "indicator": 1.398033301,
    "congestion_level": "High"
  },
  {
    "date": "2025-06-27 0:00:00",
    "company": "CSX",
    "location": "Chicago, IL",
    "Yard": "Chicago, IL",
    "lat": 41.8781136,
    "lng": -87.6297982,
    "dwell_time": 14.46,
    "Average": 13.14941176,
    "indicator": 0.6179837262,
    "congestion_level": "Average"
  },
  {
    "date": "2025-06-27 0:00:00",
    "company": "CSX",
    "location": "Cincinnati, OH",
    "Yard": "Cincinnati, OH",
    "lat": 39.1031182,
    "lng": -84.5120196,
    "dwell_time": 22.99,
    "Average": 26.51085106,
    "indicator": -0.6579442203,
    "congestion_level": "Average"
  },
  {
    "date": "2025-06-27 0:00:00",
    "company": "CSX",
    "location": "Indianapolis, IN",
    "Yard": "Indianapolis, IN",
    "lat": 39.768403,
    "lng": -86.158068,
    "dwell_time": 24.04,
    "Average": 28.96510638,
    "indicator": -0.8268553386,
    "congestion_level": "Average"
  },
  {
    "date": "2025-06-27 0:00:00",
    "company": "CSX",
    "location": "Jacksonville, FL",
    "Yard": "Jacksonville, FL",
    "lat": 30.3321838,
    "lng": -81.655651,
    "dwell_time": 17.43,
    "Average": 19.11441176,
    "indicator": -0.5753928079,
    "congestion_level": "Average"
  },
  {
    "date": "2025-06-27 0:00:00",
    "company": "CSX",
    "location": "Louisville, KY",
    "Yard": "Louisville, KY",
    "lat": 38.2526647,
    "lng": -85.7584557,
    "dwell_time": 30.88,
    "Average": 29.35106383,
    "indicator": 0.2084821155,
    "congestion_level": "Average"
  },
  {
    "date": "2025-06-27 0:00:00",
    "company": "CSX",
    "location": "Nashville, TN",
    "Yard": "Nashville, TN",
    "lat": 36.1626638,
    "lng": -86.7816016,
    "dwell_time": 26.18,
    "Average": 28.69042553,
    "indicator": -0.3407639182,
    "congestion_level": "Average"
  },
  {
    "date": "2025-06-27 0:00:00",
    "company": "CSX",
    "location": "Rocky Mount, NC",
    "Yard": "Rocky Mount, NC",
    "lat": 35.9144906,
    "lng": -77.8064608,
    "dwell_time": null,
    "Average": 23.05,
    "indicator": null,
    "congestion_level": "Very High"
  },
  {
    "date": "2025-06-27 0:00:00",
    "company": "CSX",
    "location": "Selkirk, NY",
    "Yard": "Selkirk, NY",
    "lat": 42.5319998,
    "lng": -73.7985008,
    "dwell_time": 23.4,
    "Average": 25.89,
    "indicator": -0.7005455582,
    "congestion_level": "Average"
  },
  {
    "date": "2025-06-27 0:00:00",
    "company": "CSX",
    "location": "Toledo, OH",
    "Yard": "Toledo, OH",
    "lat": 41.6528052,
    "lng": -83.5378674,
    "dwell_time": 21.2,
    "Average": 31.11106383,
    "indicator": -1.165870103,
    "congestion_level": "Low"
  },
  {
    "date": "2025-06-27 0:00:00",
    "company": "CSX",
    "location": "Waycross, GA",
    "Yard": "Waycross, GA",
    "lat": 31.2135511,
    "lng": -82.3540178,
    "dwell_time": 24.28,
    "Average": 24.69978723,
    "indicator": -0.09219219804,
    "congestion_level": "Average"
  },
  {
    "date": "2025-06-27 0:00:00",
    "company": "NS",
    "location": "Allentown, PA",
    "Yard": "Allentown, PA",
    "lat": 40.6022939,
    "lng": -75.4714098,
    "dwell_time": null,
    "Average": 23.65238095,
    "indicator": null,
    "congestion_level": "Very High"
  },
  {
    "date": "2025-06-27 0:00:00",
    "company": "NS",
    "location": "Atlanta, GA",
    "Yard": "Atlanta, GA",
    "lat": 33.7489954,
    "lng": -84.3879824,
    "dwell_time": 19.4,
    "Average": 17.14473684,
    "indicator": 0.6290424119,
    "congestion_level": "Average"
  },
  {
    "date": "2025-06-27 0:00:00",
    "company": "NS",
    "location": "Bellevue, OH",
    "Yard": "Bellevue, OH",
    "lat": 41.2736647,
    "lng": -82.8415763,
    "dwell_time": 35.9,
    "Average": 29.68510638,
    "indicator": 1.138206626,
    "congestion_level": "High"
  },
  {
    "date": "2025-06-27 0:00:00",
    "company": "NS",
    "location": "Birmingham, AL",
    "Yard": "Birmingham, AL",
    "lat": 33.5185892,
    "lng": -86.8103567,
    "dwell_time": 35.7,
    "Average": 33.77021277,
    "indicator": 0.2347207928,
    "congestion_level": "Average"
  },
  {
    "date": "2025-06-27 0:00:00",
    "company": "NS",
    "location": "Chattanooga, TN",
    "Yard": "Chattanooga, TN",
    "lat": 35.0456297,
    "lng": -85.3096801,
    "dwell_time": 26.9,
    "Average": 32.83404255,
    "indicator": -0.596597757,
    "congestion_level": "Average"
  },
  {
    "date": "2025-06-27 0:00:00",
    "company": "NS",
    "location": "Pittsburgh, PA",
    "Yard": "Pittsburgh, PA",
    "lat": 40.4406248,
    "lng": -79.9958864,
    "dwell_time": 33.2,
    "Average": 27.7106383,
    "indicator": 1.145214828,
    "congestion_level": "High"
  },
  {
    "date": "2025-06-27 0:00:00",
    "company": "NS",
    "location": "Decatur, IL",
    "Yard": "Decatur, IL",
    "lat": 39.8403147,
    "lng": -88.9548001,
    "dwell_time": 34.2,
    "Average": 25.78723404,
    "indicator": 1.241124443,
    "congestion_level": "High"
  },
  {
    "date": "2025-06-27 0:00:00",
    "company": "NS",
    "location": "Elkhart, IN",
    "Yard": "Elkhart, IN",
    "lat": 41.6819935,
    "lng": -85.9766671,
    "dwell_time": 25.0,
    "Average": 28.6,
    "indicator": -0.6270514413,
    "congestion_level": "Average"
  },
  {
    "date": "2025-06-27 0:00:00",
    "company": "NS",
    "location": "Harrisburg, PA",
    "Yard": "Harrisburg, PA",
    "lat": 40.3028161,
    "lng": -76.8928454,
    "dwell_time": 10.9,
    "Average": 13.00384615,
    "indicator": -0.8481330861,
    "congestion_level": "Average"
  },
  {
    "date": "2025-06-27 0:00:00",
    "company": "NS",
    "location": "Linwood, NC",
    "Yard": "Linwood, NC",
    "lat": 35.7506938,
    "lng": -80.3178305,
    "dwell_time": null,
    "Average": 28.04285714,
    "indicator": null,
    "congestion_level": "Very High"
  },
  {
    "date": "2025-06-27 0:00:00",
    "company": "NS",
    "location": "Macon, GA",
    "Yard": "Macon, GA",
    "lat": 32.8406946,
    "lng": -83.6324022,
    "dwell_time": 27.7,
    "Average": 28.78085106,
    "indicator": -0.1927865483,
    "congestion_level": "Average"
  },
  {
    "date": "2025-06-27 0:00:00",
    "company": "NS",
    "location": "Roanoke, VA",
    "Yard": "Roanoke, VA",
    "lat": 37.2739515,
    "lng": -79.9510329,
    "dwell_time": 37.6,
    "Average": 29.79615385,
    "indicator": 1.03006209,
    "congestion_level": "High"
  },
  {
    "date": "2025-06-27 0:00:00",
    "company": "UP",
    "location": "Proviso, IL",
    "Yard": "Proviso, IL",
    "lat": 41.8653429,
    "lng": -87.8721439,
    "dwell_time": 22.3,
    "Average": 27.10212766,
    "indicator": -0.7841728467,
    "congestion_level": "Average"
  },
  {
    "date": "2025-06-27 0:00:00",
    "company": "UP",
    "location": "Englewood, TX",
    "Yard": "Englewood, TX",
    "lat": 29.7983826,
    "lng": -95.3079662,
    "dwell_time": 22.3,
    "Average": 27.17659574,
    "indicator": -1.012019425,
    "congestion_level": "Low"
  },
  {
    "date": "2025-06-27 0:00:00",
    "company": "UP",
    "location": "Livonia, LA",
    "Yard": "Livonia, LA",
    "lat": 30.5590803,
    "lng": -91.555945,
    "dwell_time": 22.7,
    "Average": 26.21276596,
    "indicator": -0.7855926332,
    "congestion_level": "Average"
  },
  {
    "date": "2025-06-27 0:00:00",
    "company": "UP",
    "location": "North Little Rock, AR",
    "Yard": "North Little Rock, AR",
    "lat": 34.769536,
    "lng": -92.2670941,
    "dwell_time": 23.2,
    "Average": 24.53404255,
    "indicator": -0.3208792792,
    "congestion_level": "Average"
  },
  {
    "date": "2025-06-27 0:00:00",
    "company": "UP",
    "location": "North Platte East, NE",
    "Yard": "North Platte East, NE",
    "lat": 41.1402759,
    "lng": -100.7601454,
    "dwell_time": null,
    "Average": 25.61153846,
    "indicator": null,
    "congestion_level": "Very High"
  },
  {
    "date": "2025-06-27 0:00:00",
    "company": "UP",
    "location": "North Platte West, NE",
    "Yard": "North Platte West, NE",
    "lat": 41.1402759,
    "lng": -100.7601454,
    "dwell_time": 20.8,
    "Average": 27.17659574,
    "indicator": -1.440530485,
    "congestion_level": "Low"
  },
  {
    "date": "2025-06-27 0:00:00",
    "company": "UP",
    "location": "Pine Bluff, AR",
    "Yard": "Pine Bluff, AR",
    "lat": 34.2284312,
    "lng": -92.0031955,
    "dwell_time": 24.1,
    "Average": 27.36170213,
    "indicator": -0.977497586,
    "congestion_level": "Average"
  },
  {
    "date": "2025-06-27 0:00:00",
    "company": "UP",
    "location": "Roseville, CA",
    "Yard": "Roseville, CA",
    "lat": 38.7521235,
    "lng": -121.2880059,
    "dwell_time": 20.9,
    "Average": 26.77234043,
    "indicator": -1.054506036,
    "congestion_level": "Low"
  },
  {
    "date": "2025-06-27 0:00:00",
    "company": "UP",
    "location": "Anthony, NM",
    "Yard": "Anthony, NM",
    "lat": 31.90796865,
    "lng": -106.7478105,
    "dwell_time": 24.5,
    "Average": 20.37619048,
    "indicator": 1.394109653,
    "congestion_level": "High"
  },
  {
    "date": "2025-06-27 0:00:00",
    "company": "UP",
    "location": "West Colton, CA",
    "Yard": "West Colton, CA",
    "lat": 34.0669931,
    "lng": -117.3529857,
    "dwell_time": 20.8,
    "Average": 28.91914894,
    "indicator": -1.499619976,
    "congestion_level": "Low"
  },
  {
    "date": "5/7/2025",
    "company": "CPKC",
    "location": "Albany, NY",
    "Yard": "Albany, NY",
    "lat": 42.63336715,
    "lng": -73.7611767,
    "dwell_time": 14.919077,
    "Average": null,
    "indicator": null,
    "congestion_level": "Low"
  },
  {
    "date": "5/7/2025",
    "company": "CPKC",
    "location": "Glenwood, MN",
    "Yard": "Glenwood, MN",
    "lat": 45.64988169,
    "lng": -95.36640325,
    "dwell_time": 22.406757,
    "Average": null,
    "indicator": null,
    "congestion_level": "Average"
  },
  {
    "date": "5/7/2025",
    "company": "CPKC",
    "location": "La Crosse, WI",
    "Yard": "La Crosse, WI",
    "lat": 43.84106914,
    "lng": -91.23753209,
    "dwell_time": 26.699513,
    "Average": null,
    "indicator": null,
    "congestion_level": "High"
  },
  {
    "date": "5/7/2025",
    "company": "CPKC",
    "location": "Mason City, IA",
    "Yard": "Mason City, IA",
    "lat": 43.1417676,
    "lng": -93.19591338,
    "dwell_time": 20.968754,
    "Average": null,
    "indicator": null,
    "congestion_level": "Average"
  },
  {
    "date": "5/7/2025",
    "company": "CPKC",
    "location": "Milwaukee, WI",
    "Yard": "Milwaukee, WI",
    "lat": 43.02753366,
    "lng": -87.9349538,
    "dwell_time": 30.099702,
    "Average": null,
    "indicator": null,
    "congestion_level": "Very High"
  },
  {
    "date": "5/7/2025",
    "company": "CPKC",
    "location": "Saratoga Springs, NY",
    "Yard": "Saratoga Springs, NY",
    "lat": 43.06684433,
    "lng": -73.8161988,
    "dwell_time": 17.332243,
    "Average": null,
    "indicator": null,
    "congestion_level": "Low"
  },
  {
    "date": "5/7/2025",
    "company": "CPKC",
    "location": "Kansas City, MO",
    "Yard": "Kansas City, MO",
    "lat": 39.0997265,
    "lng": -94.5785667,
    "dwell_time": 15.33,
    "Average": null,
    "indicator": null,
    "congestion_level": "Low"
  },
  {
    "date": "5/7/2025",
    "company": "CPKC",
    "location": "Wylie, TX",
    "Yard": "Wylie, TX",
    "lat": 33.02619265,
    "lng": -96.50913366,
    "dwell_time": 11.15,
    "Average": null,
    "indicator": null,
    "congestion_level": "Low"
  },
  {
    "date": "5/7/2025",
    "company": "CPKC",
    "location": "Artesia, MS",
    "Yard": "Artesia, MS",
    "lat": 33.41421071,
    "lng": -88.64338396,
    "dwell_time": 10.6,
    "Average": null,
    "indicator": null,
    "congestion_level": "Low"
  },
  {
    "date": "5/7/2025",
    "company": "CPKC",
    "location": "Baton Rouge, LA",
    "Yard": "Baton Rouge, LA",
    "lat": 30.46068888,
    "lng": -91.17492516,
    "dwell_time": 9.09,
    "Average": null,
    "indicator": null,
    "congestion_level": "Very Low"
  },
  {
    "date": "5/7/2025",
    "company": "CPKC",
    "location": "Whittington, LA",
    "Yard": "Whittington, LA",
    "lat": 31.18994913,
    "lng": -92.34272999,
    "dwell_time": 17.69,
    "Average": null,
    "indicator": null,
    "congestion_level": "Low"
  },
  {
    "date": "5/7/2025",
    "company": "CPKC",
    "location": "Beaumont, TX",
    "Yard": "Beaumont, TX",
    "lat": 30.04787963,
    "lng": -94.07457009,
    "dwell_time": 17.05,
    "Average": null,
    "indicator": null,
    "congestion_level": "Low"
  }
]