[
  {
    "date": "2025-06-13 0:00:00",
    "company": "BNSF",
    "location": "Barstow, CA",
    "lat": 34.8957957,
    "lng": -117.0172826,
    "congestion_score": 25.7,
    "indicator": -1.572750366,
    "congestion_level": "Low"
  },
  {
    "date": "2025-06-13 0:00:00",
    "company": "BNSF",
    "location": "Denver, CO",
    "lat": 39.7392358,
    "lng": -104.990251,
    "congestion_score": 25,
    "indicator": -1.522307415,
    "congestion_level": "Low"
  },
  {
    "date": "2025-06-13 0:00:00",
    "company": "BNSF",
    "location": "Fort Worth, TX",
    "lat": 32.7554883,
    "lng": -97.3307658,
    "congestion_score": 28.3,
    "indicator": 0.3277130796,
    "congestion_level": "Average"
  },
  {
    "date": "2025-06-13 0:00:00",
    "company": "BNSF",
    "location": "Galesburg, IL",
    "lat": 40.9478158,
    "lng": -90.3712395,
    "congestion_score": 28.5,
    "indicator": -0.695153651,
    "congestion_level": "Average"
  },
  {
    "date": "2025-06-13 0:00:00",
    "company": "BNSF",
    "location": "Kansas City, KS",
    "lat": 39.0997265,
    "lng": -94.5785667,
    "congestion_score": 29.4,
    "indicator": -1.091787343,
    "congestion_level": "Low"
  },
  {
    "date": "2025-06-13 0:00:00",
    "company": "BNSF",
    "location": "Lincoln, NE",
    "lat": 40.813616,
    "lng": -96.7025955,
    "congestion_score": 24.1,
    "indicator": -1.158048639,
    "congestion_level": "Low"
  },
  {
    "date": "2025-06-13 0:00:00",
    "company": "BNSF",
    "location": "Memphis, TN",
    "lat": 35.1495343,
    "lng": -90.0489801,
    "congestion_score": 17,
    "indicator": -1.054683918,
    "congestion_level": "Low"
  },
  {
    "date": "2025-06-13 0:00:00",
    "company": "BNSF",
    "location": "Northtown, MN",
    "lat": 45.128403,
    "lng": -93.259694,
    "congestion_score": 25.2,
    "indicator": -1.470303044,
    "congestion_level": "Low"
  },
  {
    "date": "2025-06-13 0:00:00",
    "company": "BNSF",
    "location": "Pasco, WA",
    "lat": 46.2305049,
    "lng": -119.0922316,
    "congestion_score": 21.1,
    "indicator": -2.122858857,
    "congestion_level": "Very Low"
  },
  {
    "date": "2025-06-13 0:00:00",
    "company": "BNSF",
    "location": "Tulsa, OK",
    "lat": 36.1539816,
    "lng": -95.992775,
    "congestion_score": 24.3,
    "indicator": -0.5163437665,
    "congestion_level": "Average"
  },
  {
    "date": "2025-06-13 0:00:00",
    "company": "CN",
    "location": "Baton Rouge, LA",
    "lat": 30.4514677,
    "lng": -91.1871466,
    "congestion_score": 17.16,
    "indicator": 0.6992119669,
    "congestion_level": "Average"
  },
  {
    "date": "2025-06-13 0:00:00",
    "company": "CN",
    "location": "Champaign, IL",
    "lat": 40.1164204,
    "lng": -88.2433829,
    "congestion_score": 12.5,
    "indicator": -1.628073875,
    "congestion_level": "Low"
  },
  {
    "date": "2025-06-13 0:00:00",
    "company": "CN",
    "location": "Fond Du Lac, WI",
    "lat": 43.7730448,
    "lng": -88.4470508,
    "congestion_score": 17.76,
    "indicator": -0.9944889248,
    "congestion_level": "Average"
  },
  {
    "date": "2025-06-13 0:00:00",
    "company": "CN",
    "location": "Geismar, LA",
    "lat": 30.2193468,
    "lng": -91.0065088,
    "congestion_score": 18.82,
    "indicator": 1.758807123,
    "congestion_level": "High"
  },
  {
    "date": "2025-06-13 0:00:00",
    "company": "CN",
    "location": "Jackson, MS",
    "lat": 32.2987573,
    "lng": -90.1848103,
    "congestion_score": 11.83,
    "indicator": -0.2480417431,
    "congestion_level": "Average"
  },
  {
    "date": "2025-06-13 0:00:00",
    "company": "CN",
    "location": "Gary, IN",
    "lat": 41.5933696,
    "lng": -87.3464271,
    "congestion_score": 24.28,
    "indicator": 0.3563367124,
    "congestion_level": "Average"
  },
  {
    "date": "2025-06-13 0:00:00",
    "company": "CN",
    "location": "Markham, ON",
    "lat": 43.8561002,
    "lng": -79.3370188,
    "congestion_score": 15.95,
    "indicator": 1.816718656,
    "congestion_level": "High"
  },
  {
    "date": "2025-06-13 0:00:00",
    "company": "CN",
    "location": "Memphis, TN",
    "lat": 35.1495343,
    "lng": -90.0489801,
    "congestion_score": 21.71,
    "indicator": -0.1535043149,
    "congestion_level": "Average"
  },
  {
    "date": "2025-06-13 0:00:00",
    "company": "CN",
    "location": "Proctor, MN",
    "lat": 46.7471638,
    "lng": -92.2254695,
    "congestion_score": 7.32,
    "indicator": -0.5078407299,
    "congestion_level": "Average"
  },
  {
    "date": "2025-06-13 0:00:00",
    "company": "CN",
    "location": "Stevens Point, WI",
    "lat": 44.5235792,
    "lng": -89.574563,
    "congestion_score": 19.54,
    "indicator": -0.7044190232,
    "congestion_level": "Average"
  },
  {
    "date": "2025-06-13 0:00:00",
    "company": "CPKC",
    "location": "Bensenville, IL",
    "lat": 41.9550296,
    "lng": -87.9400657,
    "congestion_score": 26.59,
    "indicator": -0.7071067812,
    "congestion_level": "Average"
  },
  {
    "date": "2025-06-13 0:00:00",
    "company": "CPKC",
    "location": "Harvey, ND",
    "lat": 47.769723,
    "lng": -99.935404,
    "congestion_score": 18.06,
    "indicator": 0.7071067812,
    "congestion_level": "Average"
  },
  {
    "date": "2025-06-13 0:00:00",
    "company": "CPKC",
    "location": "Jackson, MS",
    "lat": 32.2987573,
    "lng": -90.1848103,
    "congestion_score": 36.36,
    "indicator": -0.7071067812,
    "congestion_level": "Average"
  },
  {
    "date": "2025-06-13 0:00:00",
    "company": "CPKC",
    "location": "Kansas City, KS",
    "lat": 39.0997265,
    "lng": -94.5785667,
    "congestion_score": 47.04,
    "indicator": 0.7071067812,
    "congestion_level": "Average"
  },
  {
    "date": "2025-06-13 0:00:00",
    "company": "CPKC",
    "location": "Laredo, TX",
    "lat": 27.5035613,
    "lng": -99.5075519,
    "congestion_score": 8.72,
    "indicator": 0.7071067812,
    "congestion_level": "Average"
  },
  {
    "date": "2025-06-13 0:00:00",
    "company": "CPKC",
    "location": "Meridian, MS",
    "lat": 32.3610377,
    "lng": -88.6991015,
    "congestion_score": 12.03,
    "indicator": -0.7071067812,
    "congestion_level": "Average"
  },
  {
    "date": "2025-06-13 0:00:00",
    "company": "CPKC",
    "location": "Nahant, IA",
    "lat": 41.4875323,
    "lng": -90.6379164,
    "congestion_score": 28.97,
    "indicator": 0.7071067812,
    "congestion_level": "Average"
  },
  {
    "date": "2025-06-13 0:00:00",
    "company": "CPKC",
    "location": "New Orleans, LA",
    "lat": 29.9725656,
    "lng": -90.1399969,
    "congestion_score": 49.99,
    "indicator": -0.7071067812,
    "congestion_level": "Average"
  },
  {
    "date": "2025-06-13 0:00:00",
    "company": "CPKC",
    "location": "Shreveport, LA",
    "lat": 32.5251516,
    "lng": -93.7501789,
    "congestion_score": 66.2,
    "indicator": 0.7071067812,
    "congestion_level": "Average"
  },
  {
    "date": "2025-06-13 0:00:00",
    "company": "CPKC",
    "location": "St Paul, MN",
    "lat": 44.9537029,
    "lng": -93.0899578,
    "congestion_score": 21.74,
    "indicator": 0.7071067812,
    "congestion_level": "Average"
  },
  {
    "date": "2025-06-13 0:00:00",
    "company": "CSX",
    "location": "Baltimore, MD",
    "lat": 39.2903848,
    "lng": -76.6121893,
    "congestion_score": 13.41,
    "indicator": -0.7342998957,
    "congestion_level": "Average"
  },
  {
    "date": "2025-06-13 0:00:00",
    "company": "CSX",
    "location": "Chicago, IL",
    "lat": 41.8781136,
    "lng": -87.6297982,
    "congestion_score": 17.05,
    "indicator": 1.871918785,
    "congestion_level": "High"
  },
  {
    "date": "2025-06-13 0:00:00",
    "company": "CSX",
    "location": "Cincinnati, OH",
    "lat": 39.1031182,
    "lng": -84.5120196,
    "congestion_score": 19.59,
    "indicator": -1.326298962,
    "congestion_level": "Low"
  },
  {
    "date": "2025-06-13 0:00:00",
    "company": "CSX",
    "location": "Indianapolis, IN",
    "lat": 39.768403,
    "lng": -86.158068,
    "congestion_score": 23.78,
    "indicator": -0.908231461,
    "congestion_level": "Average"
  },
  {
    "date": "2025-06-13 0:00:00",
    "company": "CSX",
    "location": "Jacksonville, FL",
    "lat": 30.3321838,
    "lng": -81.655651,
    "congestion_score": 17.2,
    "indicator": -0.6691257761,
    "congestion_level": "Average"
  },
  {
    "date": "2025-06-13 0:00:00",
    "company": "CSX",
    "location": "Louisville, KY",
    "lat": 38.2526647,
    "lng": -85.7584557,
    "congestion_score": 24.2,
    "indicator": -0.6886359858,
    "congestion_level": "Average"
  },
  {
    "date": "2025-06-13 0:00:00",
    "company": "CSX",
    "location": "Nashville, TN",
    "lat": 36.1626638,
    "lng": -86.7816016,
    "congestion_score": 25.31,
    "indicator": -0.4692418453,
    "congestion_level": "Average"
  },
  {
    "date": "2025-06-13 0:00:00",
    "company": "CSX",
    "location": "Rocky Mount, NC",
    "lat": 35.9144906,
    "lng": -77.8064608,
    "congestion_score": null,
    "indicator": null,
    "congestion_level": "Very High"
  },
  {
    "date": "2025-06-13 0:00:00",
    "company": "CSX",
    "location": "Selkirk, NY",
    "lat": 42.5319998,
    "lng": -73.7985008,
    "congestion_score": 26.99,
    "indicator": 0.2936370747,
    "congestion_level": "Average"
  },
  {
    "date": "2025-06-13 0:00:00",
    "company": "CSX",
    "location": "Toledo, OH",
    "lat": 41.6528052,
    "lng": -83.5378674,
    "congestion_score": 20.69,
    "indicator": -1.303769135,
    "congestion_level": "Low"
  },
  {
    "date": "2025-06-13 0:00:00",
    "company": "CSX",
    "location": "Waycross, GA",
    "lat": 31.2135511,
    "lng": -82.3540178,
    "congestion_score": 21.99,
    "indicator": -0.5866099139,
    "congestion_level": "Average"
  },
  {
    "date": "2025-06-13 0:00:00",
    "company": "NS",
    "location": "Allentown, PA",
    "lat": 40.6022939,
    "lng": -75.4714098,
    "congestion_score": null,
    "indicator": null,
    "congestion_level": "Very High"
  },
  {
    "date": "2025-06-13 0:00:00",
    "company": "NS",
    "location": "Atlanta, GA",
    "lat": 33.7489954,
    "lng": -84.3879824,
    "congestion_score": 19,
    "indicator": 0.5384131256,
    "congestion_level": "Average"
  },
  {
    "date": "2025-06-13 0:00:00",
    "company": "NS",
    "location": "Bellevue, OH",
    "lat": 41.2736647,
    "lng": -82.8415763,
    "congestion_score": 28.8,
    "indicator": -0.1244390523,
    "congestion_level": "Average"
  },
  {
    "date": "2025-06-13 0:00:00",
    "company": "NS",
    "location": "Birmingham, AL",
    "lat": 33.5185892,
    "lng": -86.8103567,
    "congestion_score": 28.1,
    "indicator": -0.6745316804,
    "congestion_level": "Average"
  },
  {
    "date": "2025-06-13 0:00:00",
    "company": "NS",
    "location": "Chattanooga, TN",
    "lat": 35.0456297,
    "lng": -85.3096801,
    "congestion_score": 30.3,
    "indicator": -0.2675484684,
    "congestion_level": "Average"
  },
  {
    "date": "2025-06-13 0:00:00",
    "company": "NS",
    "location": "Pittsburgh, PA",
    "lat": 40.4406248,
    "lng": -79.9958864,
    "congestion_score": 33.3,
    "indicator": 1.206599222,
    "congestion_level": "High"
  },
  {
    "date": "2025-06-13 0:00:00",
    "company": "NS",
    "location": "Decatur, IL",
    "lat": 39.8403147,
    "lng": -88.9548001,
    "congestion_score": 37.4,
    "indicator": 1.878971478,
    "congestion_level": "High"
  },
  {
    "date": "2025-06-13 0:00:00",
    "company": "NS",
    "location": "Elkhart, IN",
    "lat": 41.6819935,
    "lng": -85.9766671,
    "congestion_score": 23.3,
    "indicator": -0.937316058,
    "congestion_level": "Average"
  },
  {
    "date": "2025-06-13 0:00:00",
    "company": "NS",
    "location": "Harrisburg, PA",
    "lat": 40.3028161,
    "lng": -76.8928454,
    "congestion_score": 10.2,
    "indicator": -1.208649141,
    "congestion_level": "Low"
  },
  {
    "date": "2025-06-13 0:00:00",
    "company": "NS",
    "location": "Linwood, NC",
    "lat": 35.7506938,
    "lng": -80.3178305,
    "congestion_score": null,
    "indicator": null,
    "congestion_level": "Very High"
  },
  {
    "date": "2025-06-13 0:00:00",
    "company": "NS",
    "location": "Macon, GA",
    "lat": 32.8406946,
    "lng": -83.6324022,
    "congestion_score": 28,
    "indicator": -0.1459204618,
    "congestion_level": "Average"
  },
  {
    "date": "2025-06-13 0:00:00",
    "company": "NS",
    "location": "Roanoke, VA",
    "lat": 37.2739515,
    "lng": -79.9510329,
    "congestion_score": 35,
    "indicator": 0.720055681,
    "congestion_level": "Average"
  },
  {
    "date": "2025-06-13 0:00:00",
    "company": "UP",
    "location": "Proviso, IL",
    "lat": 41.8653429,
    "lng": -87.8721439,
    "congestion_score": 21.7,
    "indicator": -0.9235110091,
    "congestion_level": "Average"
  },
  {
    "date": "2025-06-13 0:00:00",
    "company": "UP",
    "location": "Fort Worth, TX",
    "lat": 32.7554883,
    "lng": -97.3307658,
    "congestion_score": 22.3,
    "indicator": -0.8240986459,
    "congestion_level": "Average"
  },
  {
    "date": "2025-06-13 0:00:00",
    "company": "UP",
    "location": "Englewood, TX",
    "lat": 29.7983826,
    "lng": -95.3079662,
    "congestion_score": 21.4,
    "indicator": -1.253685662,
    "congestion_level": "Low"
  },
  {
    "date": "2025-06-13 0:00:00",
    "company": "UP",
    "location": "Livonia, LA",
    "lat": 30.5590803,
    "lng": -91.555945,
    "congestion_score": 23.1,
    "indicator": -0.7409701073,
    "congestion_level": "Average"
  },
  {
    "date": "2025-06-13 0:00:00",
    "company": "UP",
    "location": "North Little Rock, AR",
    "lat": 34.769536,
    "lng": -92.2670941,
    "congestion_score": 24.9,
    "indicator": 0.07128985009,
    "congestion_level": "Average"
  },
  {
    "date": "2025-06-13 0:00:00",
    "company": "UP",
    "location": "North Platte East, NE",
    "lat": 41.1402759,
    "lng": -100.7601454,
    "congestion_score": null,
    "indicator": null,
    "congestion_level": "Very High"
  },
  {
    "date": "2025-06-13 0:00:00",
    "company": "UP",
    "location": "North Platte West, NE",
    "lat": 41.1402759,
    "lng": -100.7601454,
    "congestion_score": 20.1,
    "indicator": -1.718513295,
    "congestion_level": "Low"
  },
  {
    "date": "2025-06-13 0:00:00",
    "company": "UP",
    "location": "Pine Bluff, AR",
    "lat": 34.2284312,
    "lng": -92.0031955,
    "congestion_score": 23.9,
    "indicator": -1.063360926,
    "congestion_level": "Low"
  },
  {
    "date": "2025-06-13 0:00:00",
    "company": "UP",
    "location": "Roseville, CA",
    "lat": 38.7521235,
    "lng": -121.2880059,
    "congestion_score": 21.5,
    "indicator": -0.9998898311,
    "congestion_level": "Average"
  },
  {
    "date": "2025-06-13 0:00:00",
    "company": "UP",
    "location": "Anthony, NM",
    "lat": 31.90796865,
    "lng": -106.7478105,
    "congestion_score": 17.6,
    "indicator": -0.8830710722,
    "congestion_level": "Average"
  },
  {
    "date": "2025-06-13 0:00:00",
    "company": "UP",
    "location": "West Colton, CA",
    "lat": 34.0669931,
    "lng": -117.3529857,
    "congestion_score": 20.9,
    "indicator": -1.613812638,
    "congestion_level": "Low"
  }
]