[
  {
    "date": "2025-06-20 0:00:00",
    "company": "BNSF",
    "location": "Barstow, CA",
    "lat": 34.8957957,
    "lng": -117.0172826,
    "dwell_time": 25.9,
    "Average": 36.06521739,
    "indicator": -1.487693914,
    "congestion_level": "Low"
  },
  {
    "date": "2025-06-20 0:00:00",
    "company": "BNSF",
    "location": "Denver, CO",
    "lat": 39.7392358,
    "lng": -104.990251,
    "dwell_time": 23.9,
    "Average": 31.05217391,
    "indicator": -1.712684383,
    "congestion_level": "Low"
  },
  {
    "date": "2025-06-20 0:00:00",
    "company": "BNSF",
    "location": "Fort Worth, TX",
    "lat": 32.7554883,
    "lng": -97.3307658,
    "dwell_time": 38.7,
    "Average": 26.53478261,
    "indicator": 1.897901229,
    "congestion_level": "High"
  },
  {
    "date": "2025-06-20 0:00:00",
    "company": "BNSF",
    "location": "Galesburg, IL",
    "lat": 40.9478158,
    "lng": -90.3712395,
    "dwell_time": 28.9,
    "Average": 30.99130435,
    "indicator": -0.5771319671,
    "congestion_level": "Average"
  },
  {
    "date": "2025-06-20 0:00:00",
    "company": "BNSF",
    "location": "Kansas City, KS",
    "lat": 39.0997265,
    "lng": -94.5785667,
    "dwell_time": 25.6,
    "Average": 32.54565217,
    "indicator": -2.193256601,
    "congestion_level": "Very Low"
  },
  {
    "date": "2025-06-20 0:00:00",
    "company": "BNSF",
    "location": "Lincoln, NE",
    "lat": 40.813616,
    "lng": -96.7025955,
    "dwell_time": 23.8,
    "Average": 30.13913043,
    "indicator": -1.182071399,
    "congestion_level": "Low"
  },
  {
    "date": "2025-06-20 0:00:00",
    "company": "BNSF",
    "location": "Memphis, TN",
    "lat": 35.1495343,
    "lng": -90.0489801,
    "dwell_time": 17.5,
    "Average": 20.46086957,
    "indicator": -0.8874363227,
    "congestion_level": "Average"
  },
  {
    "date": "2025-06-20 0:00:00",
    "company": "BNSF",
    "location": "Northtown, MN",
    "lat": 45.128403,
    "lng": -93.259694,
    "dwell_time": 25.9,
    "Average": 30.69782609,
    "indicator": -1.250114381,
    "congestion_level": "Low"
  },
  {
    "date": "2025-06-20 0:00:00",
    "company": "BNSF",
    "location": "Pasco, WA",
    "lat": 46.2305049,
    "lng": -119.0922316,
    "dwell_time": 23.6,
    "Average": 28.87391304,
    "indicator": -1.40239763,
    "congestion_level": "Low"
  },
  {
    "date": "2025-06-20 0:00:00",
    "company": "BNSF",
    "location": "Tulsa, OK",
    "lat": 36.1539816,
    "lng": -95.992775,
    "dwell_time": 26.3,
    "Average": 26.22608696,
    "indicator": 0.02005545781,
    "congestion_level": "Average"
  },
  {
    "date": "2025-06-20 0:00:00",
    "company": "CN",
    "location": "Baton Rouge, LA",
    "lat": 30.4514677,
    "lng": -91.1871466,
    "dwell_time": 17.38,
    "Average": 14.96391304,
    "indicator": 0.7544590094,
    "congestion_level": "Average"
  },
  {
    "date": "2025-06-20 0:00:00",
    "company": "CN",
    "location": "Champaign, IL",
    "lat": 40.1164204,
    "lng": -88.2433829,
    "dwell_time": 12.88,
    "Average": 18.94217391,
    "indicator": -1.479409068,
    "congestion_level": "Low"
  },
  {
    "date": "2025-06-20 0:00:00",
    "company": "CN",
    "location": "Fond Du Lac, WI",
    "lat": 43.7730448,
    "lng": -88.4470508,
    "dwell_time": 18.98,
    "Average": 21.0076087,
    "indicator": -0.6166410735,
    "congestion_level": "Average"
  },
  {
    "date": "2025-06-20 0:00:00",
    "company": "CN",
    "location": "Geismar, LA",
    "lat": 30.2193468,
    "lng": -91.0065088,
    "dwell_time": 17.69,
    "Average": 15.1076087,
    "indicator": 1.198400808,
    "congestion_level": "High"
  },
  {
    "date": "2025-06-20 0:00:00",
    "company": "CN",
    "location": "Jackson, MS",
    "lat": 32.2987573,
    "lng": -90.1848103,
    "dwell_time": 19.51,
    "Average": 12.56130435,
    "indicator": 2.749755192,
    "congestion_level": "Very High"
  },
  {
    "date": "2025-06-20 0:00:00",
    "company": "CN",
    "location": "Gary, IN",
    "lat": 41.5933696,
    "lng": -87.3464271,
    "dwell_time": 24.06,
    "Average": 23.32695652,
    "indicator": 0.2722895947,
    "congestion_level": "Average"
  },
  {
    "date": "2025-06-20 0:00:00",
    "company": "CN",
    "location": "Markham, ON",
    "lat": 43.8561002,
    "lng": -79.3370188,
    "dwell_time": 17.34,
    "Average": 12.09369565,
    "indicator": 2.278577332,
    "congestion_level": "Very High"
  },
  {
    "date": "2025-06-20 0:00:00",
    "company": "CN",
    "location": "Memphis, TN",
    "lat": 35.1495343,
    "lng": -90.0489801,
    "dwell_time": 31.24,
    "Average": 22.36021739,
    "indicator": 2.766541605,
    "congestion_level": "Very High"
  },
  {
    "date": "2025-06-20 0:00:00",
    "company": "CN",
    "location": "Proctor, MN",
    "lat": 46.7471638,
    "lng": -92.2254695,
    "dwell_time": 7.03,
    "Average": 8.532391304,
    "indicator": -0.6166884861,
    "congestion_level": "Average"
  },
  {
    "date": "2025-06-20 0:00:00",
    "company": "CN",
    "location": "Stevens Point, WI",
    "lat": 44.5235792,
    "lng": -89.574563,
    "dwell_time": 22,
    "Average": 21.51152174,
    "indicator": 0.1774177823,
    "congestion_level": "Average"
  },
  {
    "date": "2025-06-20 0:00:00",
    "company": "CPKC",
    "location": "Bensenville, IL",
    "lat": 41.9550296,
    "lng": -87.9400657,
    "dwell_time": 27.91,
    "Average": 27.65333333,
    "indicator": 0.2670666578,
    "congestion_level": "Average"
  },
  {
    "date": "2025-06-20 0:00:00",
    "company": "CPKC",
    "location": "Harvey, ND",
    "lat": 47.769723,
    "lng": -99.935404,
    "dwell_time": 33.76,
    "Average": 22.34333333,
    "indicator": 1.142891169,
    "congestion_level": "High"
  },
  {
    "date": "2025-06-20 0:00:00",
    "company": "CPKC",
    "location": "Jackson, MS",
    "lat": 32.2987573,
    "lng": -90.1848103,
    "dwell_time": 37.61,
    "Average": 37.65666667,
    "indicator": -0.03533697672,
    "congestion_level": "Average"
  },
  {
    "date": "2025-06-20 0:00:00",
    "company": "CPKC",
    "location": "Kansas City, KS",
    "lat": 39.0997265,
    "lng": -94.5785667,
    "dwell_time": 36.44,
    "Average": 43.48666667,
    "indicator": -1.154686586,
    "congestion_level": "Low"
  },
  {
    "date": "2025-06-20 0:00:00",
    "company": "CPKC",
    "location": "Laredo, TX",
    "lat": 27.5035613,
    "lng": -99.5075519,
    "dwell_time": 5.48,
    "Average": 4.906666667,
    "indicator": 0.1388231225,
    "congestion_level": "Average"
  },
  {
    "date": "2025-06-20 0:00:00",
    "company": "CPKC",
    "location": "Meridian, MS",
    "lat": 32.3610377,
    "lng": -88.6991015,
    "dwell_time": 6.59,
    "Average": 11.22,
    "indicator": -1.081058907,
    "congestion_level": "Low"
  },
  {
    "date": "2025-06-20 0:00:00",
    "company": "CPKC",
    "location": "Nahant, IA",
    "lat": 41.4875323,
    "lng": -90.6379164,
    "dwell_time": 29.54,
    "Average": 28.63666667,
    "indicator": 0.8150938125,
    "congestion_level": "Average"
  },
  {
    "date": "2025-06-20 0:00:00",
    "company": "CPKC",
    "location": "New Orleans, LA",
    "lat": 29.9725656,
    "lng": -90.1399969,
    "dwell_time": 57.62,
    "Average": 57.89,
    "indicator": -0.03358876727,
    "congestion_level": "Average"
  },
  {
    "date": "2025-06-20 0:00:00",
    "company": "CPKC",
    "location": "Shreveport, LA",
    "lat": 32.5251516,
    "lng": -93.7501789,
    "dwell_time": 62.62,
    "Average": 64.99666667,
    "indicator": -1.154669876,
    "congestion_level": "Low"
  },
  {
    "date": "2025-06-20 0:00:00",
    "company": "CPKC",
    "location": "St. Paul, MN",
    "lat": 44.9537029,
    "lng": -93.0899578,
    "dwell_time": 20.4,
    "Average": 21.24333333,
    "indicator": -1.148659887,
    "congestion_level": "Low"
  },
  {
    "date": "2025-06-20 0:00:00",
    "company": "CSX",
    "location": "Baltimore, MD",
    "lat": 39.2903848,
    "lng": -76.6121893,
    "dwell_time": 10.4,
    "Average": 14.61137931,
    "indicator": -2.125987758,
    "congestion_level": "Very Low"
  },
  {
    "date": "2025-06-20 0:00:00",
    "company": "CSX",
    "location": "Chicago, IL",
    "lat": 41.8781136,
    "lng": -87.6297982,
    "dwell_time": 15.23,
    "Average": 13.10969697,
    "indicator": 0.9904474765,
    "congestion_level": "Average"
  },
  {
    "date": "2025-06-20 0:00:00",
    "company": "CSX",
    "location": "Cincinnati, OH",
    "lat": 39.1031182,
    "lng": -84.5120196,
    "dwell_time": 20.79,
    "Average": 26.5873913,
    "indicator": -1.076711631,
    "congestion_level": "Low"
  },
  {
    "date": "2025-06-20 0:00:00",
    "company": "CSX",
    "location": "Indianapolis, IN",
    "lat": 39.768403,
    "lng": -86.158068,
    "dwell_time": 23.06,
    "Average": 29.07217391,
    "indicator": -1.005994651,
    "congestion_level": "Low"
  },
  {
    "date": "2025-06-20 0:00:00",
    "company": "CSX",
    "location": "Jacksonville, FL",
    "lat": 30.3321838,
    "lng": -81.655651,
    "dwell_time": 17.91,
    "Average": 19.16545455,
    "indicator": -0.4245134282,
    "congestion_level": "Average"
  },
  {
    "date": "2025-06-20 0:00:00",
    "company": "CSX",
    "location": "Louisville, KY",
    "lat": 38.2526647,
    "lng": -85.7584557,
    "dwell_time": 27.52,
    "Average": 29.31782609,
    "indicator": -0.2425851493,
    "congestion_level": "Average"
  },
  {
    "date": "2025-06-20 0:00:00",
    "company": "CSX",
    "location": "Nashville, TN",
    "lat": 36.1626638,
    "lng": -86.7816016,
    "dwell_time": 24.94,
    "Average": 28.745,
    "indicator": -0.5115040274,
    "congestion_level": "Average"
  },
  {
    "date": "2025-06-20 0:00:00",
    "company": "CSX",
    "location": "Rocky Mount, NC",
    "lat": 35.9144906,
    "lng": -77.8064608,
    "dwell_time": null,
    "Average": 23.05,
    "indicator": null,
    "congestion_level": "Very High"
  },
  {
    "date": "2025-06-20 0:00:00",
    "company": "CSX",
    "location": "Selkirk, NY",
    "lat": 42.5319998,
    "lng": -73.7985008,
    "dwell_time": 26.62,
    "Average": 25.94413043,
    "indicator": 0.1891068776,
    "congestion_level": "Average"
  },
  {
    "date": "2025-06-20 0:00:00",
    "company": "CSX",
    "location": "Toledo, OH",
    "lat": 41.6528052,
    "lng": -83.5378674,
    "dwell_time": 19.34,
    "Average": 31.32652174,
    "indicator": -1.416143893,
    "congestion_level": "Low"
  },
  {
    "date": "2025-06-20 0:00:00",
    "company": "CSX",
    "location": "Waycross, GA",
    "lat": 31.2135511,
    "lng": -82.3540178,
    "dwell_time": 24.19,
    "Average": 24.70891304,
    "indicator": -0.1127269791,
    "congestion_level": "Average"
  },
  {
    "date": "2025-06-20 0:00:00",
    "company": "NS",
    "location": "Allentown, PA",
    "lat": 40.6022939,
    "lng": -75.4714098,
    "dwell_time": null,
    "Average": 23.65238095,
    "indicator": null,
    "congestion_level": "Very High"
  },
  {
    "date": "2025-06-20 0:00:00",
    "company": "NS",
    "location": "Atlanta, GA",
    "lat": 33.7489954,
    "lng": -84.3879824,
    "dwell_time": 18.9,
    "Average": 17.08378378,
    "indicator": 0.5024569609,
    "congestion_level": "Average"
  },
  {
    "date": "2025-06-20 0:00:00",
    "company": "NS",
    "location": "Bellevue, OH",
    "lat": 41.2736647,
    "lng": -82.8415763,
    "dwell_time": 32.6,
    "Average": 29.55,
    "indicator": 0.5606022015,
    "congestion_level": "Average"
  },
  {
    "date": "2025-06-20 0:00:00",
    "company": "NS",
    "location": "Birmingham, AL",
    "lat": 33.5185892,
    "lng": -86.8103567,
    "dwell_time": 32.1,
    "Average": 33.72826087,
    "indicator": -0.1960014813,
    "congestion_level": "Average"
  },
  {
    "date": "2025-06-20 0:00:00",
    "company": "NS",
    "location": "Chattanooga, TN",
    "lat": 35.0456297,
    "lng": -85.3096801,
    "dwell_time": 30.9,
    "Average": 32.96304348,
    "indicator": -0.2059634817,
    "congestion_level": "Average"
  },
  {
    "date": "2025-06-20 0:00:00",
    "company": "NS",
    "location": "Pittsburgh, PA",
    "lat": 40.4406248,
    "lng": -79.9958864,
    "dwell_time": 31.2,
    "Average": 27.59130435,
    "indicator": 0.7557225921,
    "congestion_level": "Average"
  },
  {
    "date": "2025-06-20 0:00:00",
    "company": "NS",
    "location": "Decatur, IL",
    "lat": 39.8403147,
    "lng": -88.9548001,
    "dwell_time": 40,
    "Average": 25.60434783,
    "indicator": 2.137444832,
    "congestion_level": "Very High"
  },
  {
    "date": "2025-06-20 0:00:00",
    "company": "NS",
    "location": "Elkhart, IN",
    "lat": 41.6819935,
    "lng": -85.9766671,
    "dwell_time": 25.2,
    "Average": 28.67826087,
    "indicator": -0.6018592616,
    "congestion_level": "Average"
  },
  {
    "date": "2025-06-20 0:00:00",
    "company": "NS",
    "location": "Harrisburg, PA",
    "lat": 40.3028161,
    "lng": -76.8928454,
    "dwell_time": 10.4,
    "Average": 13.088,
    "indicator": -1.077983353,
    "congestion_level": "Low"
  },
  {
    "date": "2025-06-20 0:00:00",
    "company": "NS",
    "location": "Linwood, NC",
    "lat": 35.7506938,
    "lng": -80.3178305,
    "dwell_time": null,
    "Average": 28.04285714,
    "indicator": null,
    "congestion_level": "Very High"
  },
  {
    "date": "2025-06-20 0:00:00",
    "company": "NS",
    "location": "Macon, GA",
    "lat": 32.8406946,
    "lng": -83.6324022,
    "dwell_time": 27.4,
    "Average": 28.80434783,
    "indicator": -0.2478518914,
    "congestion_level": "Average"
  },
  {
    "date": "2025-06-20 0:00:00",
    "company": "NS",
    "location": "Roanoke, VA",
    "lat": 37.2739515,
    "lng": -79.9510329,
    "dwell_time": 30.5,
    "Average": 29.484,
    "indicator": 0.1343960807,
    "congestion_level": "Average"
  },
  {
    "date": "2025-06-20 0:00:00",
    "company": "UP",
    "location": "Proviso, IL",
    "lat": 41.8653429,
    "lng": -87.8721439,
    "dwell_time": 20.3,
    "Average": 27.20652174,
    "indicator": -1.123184727,
    "congestion_level": "Low"
  },
  {
    "date": "2025-06-20 0:00:00",
    "company": "UP",
    "location": "Fort Worth, TX",
    "lat": 32.7554883,
    "lng": -97.3307658,
    "dwell_time": 21.2,
    "Average": 26.36304348,
    "indicator": -1.017768285,
    "congestion_level": "Low"
  },
  {
    "date": "2025-06-20 0:00:00",
    "company": "UP",
    "location": "Englewood, TX",
    "lat": 29.7983826,
    "lng": -95.3079662,
    "dwell_time": 21.6,
    "Average": 27.2826087,
    "indicator": -1.179896997,
    "congestion_level": "Low"
  },
  {
    "date": "2025-06-20 0:00:00",
    "company": "UP",
    "location": "Livonia, LA",
    "lat": 30.5590803,
    "lng": -91.555945,
    "dwell_time": 20.9,
    "Average": 26.28913043,
    "indicator": -1.200304648,
    "congestion_level": "Low"
  },
  {
    "date": "2025-06-20 0:00:00",
    "company": "UP",
    "location": "North Little Rock, AR",
    "lat": 34.769536,
    "lng": -92.2670941,
    "dwell_time": 23,
    "Average": 24.56304348,
    "indicator": -0.3722781731,
    "congestion_level": "Average"
  },
  {
    "date": "2025-06-20 0:00:00",
    "company": "UP",
    "location": "North Platte East, NE",
    "lat": 41.1402759,
    "lng": -100.7601454,
    "dwell_time": null,
    "Average": 25.61153846,
    "indicator": null,
    "congestion_level": "Very High"
  },
  {
    "date": "2025-06-20 0:00:00",
    "company": "UP",
    "location": "North Platte West, NE",
    "lat": 41.1402759,
    "lng": -100.7601454,
    "dwell_time": 20.3,
    "Average": 27.31521739,
    "indicator": -1.60490317,
    "congestion_level": "Low"
  },
  {
    "date": "2025-06-20 0:00:00",
    "company": "UP",
    "location": "Pine Bluff, AR",
    "lat": 34.2284312,
    "lng": -92.0031955,
    "dwell_time": 25.5,
    "Average": 27.4326087,
    "indicator": -0.5790297301,
    "congestion_level": "Average"
  },
  {
    "date": "2025-06-20 0:00:00",
    "company": "UP",
    "location": "Roseville, CA",
    "lat": 38.7521235,
    "lng": -121.2880059,
    "dwell_time": 20.6,
    "Average": 26.9,
    "indicator": -1.133016968,
    "congestion_level": "Low"
  },
  {
    "date": "2025-06-20 0:00:00",
    "company": "UP",
    "location": "Anthony, NM",
    "lat": 31.90796865,
    "lng": -106.7478105,
    "dwell_time": 19.5,
    "Average": 20.17,
    "indicator": -0.2329729318,
    "congestion_level": "Average"
  },
  {
    "date": "2025-06-20 0:00:00",
    "company": "UP",
    "location": "West Colton, CA",
    "lat": 34.0669931,
    "lng": -117.3529857,
    "dwell_time": 19.8,
    "Average": 29.09565217,
    "indicator": -1.742227738,
    "congestion_level": "Low"
  }
]