[
  {
    "date": "2025-07-04 0:00:00",
    "company": "BNSF",
    "location": "Barstow, CA",
    "Yard": "Barstow, CA",
    "lat": 34.8957957,
    "lng": -117.0172826,
    "dwell_time": 24.0,
    "Average": 35.925,
    "indicator": -1.941440208,
    "congestion_level": "Low"
  },
  {
    "date": "2025-07-04 0:00:00",
    "company": "BNSF",
    "location": "Denver, CO",
    "Yard": "Denver, CO",
    "lat": 39.7392358,
    "lng": -104.990251,
    "dwell_time": 28.2,
    "Average": 32.575,
    "indicator": -1.161040105,
    "congestion_level": "Low"
  },
  {
    "date": "2025-07-04 0:00:00",
    "company": "BNSF",
    "location": "Fort Worth, TX",
    "Yard": "Fort Worth, TX",
    "lat": 32.7554883,
    "lng": -97.3307658,
    "dwell_time": 26.3,
    "Average": 27.90681818,
    "indicator": -0.2733448254,
    "congestion_level": "Average"
  },
  {
    "date": "2025-07-04 0:00:00",
    "company": "BNSF",
    "location": "Galesburg, IL",
    "Yard": "Galesburg, IL",
    "lat": 40.9478158,
    "lng": -90.3712395,
    "dwell_time": 27.0,
    "Average": 31.80227273,
    "indicator": -1.499468156,
    "congestion_level": "Low"
  },
  {
    "date": "2025-07-04 0:00:00",
    "company": "BNSF",
    "location": "Kansas City, KS",
    "Yard": "Kansas City, KS",
    "lat": 39.0997265,
    "lng": -94.5785667,
    "dwell_time": 23.9,
    "Average": 34.19318182,
    "indicator": -1.852028066,
    "congestion_level": "Low"
  },
  {
    "date": "2025-07-04 0:00:00",
    "company": "BNSF",
    "location": "Lincoln, NE",
    "Yard": "Lincoln, NE",
    "lat": 40.813616,
    "lng": -96.7025955,
    "dwell_time": 24.3,
    "Average": 30.89318182,
    "indicator": -1.43591621,
    "congestion_level": "Low"
  },
  {
    "date": "2025-07-04 0:00:00",
    "company": "BNSF",
    "location": "Memphis, TN",
    "Yard": "Memphis, TN",
    "lat": 35.1495343,
    "lng": -90.0489801,
    "dwell_time": 15.6,
    "Average": 18.58863636,
    "indicator": -0.9911992402,
    "congestion_level": "Average"
  },
  {
    "date": "2025-07-04 0:00:00",
    "company": "BNSF",
    "location": "Northtown, MN",
    "Yard": "Northtown, MN",
    "lat": 45.128403,
    "lng": -93.259694,
    "dwell_time": 25.6,
    "Average": 31.6,
    "indicator": -1.523316015,
    "congestion_level": "Low"
  },
  {
    "date": "2025-07-04 0:00:00",
    "company": "BNSF",
    "location": "Pasco, WA",
    "Yard": "Pasco, WA",
    "lat": 46.2305049,
    "lng": -119.0922316,
    "dwell_time": 21.9,
    "Average": 29.12954545,
    "indicator": -1.804488407,
    "congestion_level": "Low"
  },
  {
    "date": "2025-07-04 0:00:00",
    "company": "BNSF",
    "location": "Tulsa, OK",
    "Yard": "Tulsa, OK",
    "lat": 36.1539816,
    "lng": -95.992775,
    "dwell_time": 25.7,
    "Average": 26.53636364,
    "indicator": -0.2524877778,
    "congestion_level": "Average"
  },
  {
    "date": "2025-07-04 0:00:00",
    "company": "CN",
    "location": "Baton Rouge, LA",
    "Yard": "Baton Rouge, LA",
    "lat": 30.4514677,
    "lng": -91.1871466,
    "dwell_time": 18.57,
    "Average": 14.85931818,
    "indicator": 1.031175733,
    "congestion_level": "High"
  },
  {
    "date": "2025-07-04 0:00:00",
    "company": "CN",
    "location": "Champaign, IL",
    "Yard": "Champaign, IL",
    "lat": 40.1164204,
    "lng": -88.2433829,
    "dwell_time": 13.22,
    "Average": 20.35090909,
    "indicator": -1.394961604,
    "congestion_level": "Low"
  },
  {
    "date": "2025-07-04 0:00:00",
    "company": "CN",
    "location": "Fond Du Lac, WI",
    "Yard": "Fond Du Lac, WI",
    "lat": 43.7730448,
    "lng": -88.4470508,
    "dwell_time": 24.53,
    "Average": 21.98022727,
    "indicator": 0.5762274827,
    "congestion_level": "Average"
  },
  {
    "date": "2025-07-04 0:00:00",
    "company": "CN",
    "location": "Geismar, LA",
    "Yard": "Geismar, LA",
    "lat": 30.2193468,
    "lng": -91.0065088,
    "dwell_time": 16.82,
    "Average": 14.88613636,
    "indicator": 0.9427782012,
    "congestion_level": "Average"
  },
  {
    "date": "2025-07-04 0:00:00",
    "company": "CN",
    "location": "Jackson, MS",
    "Yard": "Jackson, MS",
    "lat": 32.2987573,
    "lng": -90.1848103,
    "dwell_time": 16.24,
    "Average": 12.47386364,
    "indicator": 1.981330696,
    "congestion_level": "High"
  },
  {
    "date": "2025-07-04 0:00:00",
    "company": "CN",
    "location": "Gary, IN",
    "Yard": "Gary, IN",
    "lat": 41.5933696,
    "lng": -87.3464271,
    "dwell_time": 29.23,
    "Average": 23.89636364,
    "indicator": 1.373138002,
    "congestion_level": "High"
  },
  {
    "date": "2025-07-04 0:00:00",
    "company": "CN",
    "location": "Markham, ON",
    "Yard": "Markham, ON",
    "lat": 43.8561002,
    "lng": -79.3370188,
    "dwell_time": 17.93,
    "Average": 12.31818182,
    "indicator": 2.038623616,
    "congestion_level": "Very High"
  },
  {
    "date": "2025-07-04 0:00:00",
    "company": "CN",
    "location": "Memphis, TN",
    "Yard": "Memphis, TN",
    "lat": 35.1495343,
    "lng": -90.0489801,
    "dwell_time": 28.91,
    "Average": 21.37181818,
    "indicator": 2.101759252,
    "congestion_level": "Very High"
  },
  {
    "date": "2025-07-04 0:00:00",
    "company": "CN",
    "location": "Proctor, MN",
    "Yard": "Proctor, MN",
    "lat": 46.7471638,
    "lng": -92.2254695,
    "dwell_time": 9.98,
    "Average": 8.915454545,
    "indicator": 0.4104202744,
    "congestion_level": "Average"
  },
  {
    "date": "2025-07-04 0:00:00",
    "company": "CN",
    "location": "Stevens Point, WI",
    "Yard": "Stevens Point, WI",
    "lat": 44.5235792,
    "lng": -89.574563,
    "dwell_time": 22.35,
    "Average": 21.08636364,
    "indicator": 0.5438483075,
    "congestion_level": "Average"
  },
  {
    "date": "2025-07-04 0:00:00",
    "company": "CPKC",
    "location": "Bensenville, IL",
    "Yard": "Bensenville, IL",
    "lat": 41.9550296,
    "lng": -87.9400657,
    "dwell_time": 31.72,
    "Average": 31.72,
    "indicator": null,
    "congestion_level": "Very High"
  },
  {
    "date": "2025-07-04 0:00:00",
    "company": "CPKC",
    "location": "Harvey, ND",
    "Yard": "Harvey, ND",
    "lat": 47.769723,
    "lng": -99.935404,
    "dwell_time": 17.24,
    "Average": 17.24,
    "indicator": null,
    "congestion_level": "Very High"
  },
  {
    "date": "2025-07-04 0:00:00",
    "company": "CPKC",
    "location": "Jackson, MS",
    "Yard": "Jackson, MS",
    "lat": 32.2987573,
    "lng": -90.1848103,
    "dwell_time": 33.09,
    "Average": 33.09,
    "indicator": null,
    "congestion_level": "Very High"
  },
  {
    "date": "2025-07-04 0:00:00",
    "company": "CPKC",
    "location": "Kansas City, KS",
    "Yard": "Kansas City, KS",
    "lat": 39.0997265,
    "lng": -94.5785667,
    "dwell_time": 28.44,
    "Average": 28.44,
    "indicator": null,
    "congestion_level": "Very High"
  },
  {
    "date": "2025-07-04 0:00:00",
    "company": "CPKC",
    "location": "Laredo, TX",
    "Yard": "Laredo, TX",
    "lat": 27.5035613,
    "lng": -99.5075519,
    "dwell_time": 5.62,
    "Average": 5.62,
    "indicator": null,
    "congestion_level": "Very High"
  },
  {
    "date": "2025-07-04 0:00:00",
    "company": "CPKC",
    "location": "Meridian, MS",
    "Yard": "Meridian, MS",
    "lat": 32.3610377,
    "lng": -88.6991015,
    "dwell_time": 6.82,
    "Average": 6.82,
    "indicator": null,
    "congestion_level": "Very High"
  },
  {
    "date": "2025-07-04 0:00:00",
    "company": "CPKC",
    "location": "Nahant, IA",
    "Yard": "Nahant, IA",
    "lat": 41.4875323,
    "lng": -90.6379164,
    "dwell_time": 26.9,
    "Average": 26.9,
    "indicator": null,
    "congestion_level": "Very High"
  },
  {
    "date": "2025-07-04 0:00:00",
    "company": "CPKC",
    "location": "New Orleans, LA",
    "Yard": "New Orleans, LA",
    "lat": 29.9725656,
    "lng": -90.1399969,
    "dwell_time": 27.65,
    "Average": 27.65,
    "indicator": null,
    "congestion_level": "Very High"
  },
  {
    "date": "2025-07-04 0:00:00",
    "company": "CPKC",
    "location": "Shreveport, LA",
    "Yard": "Shreveport, LA",
    "lat": 32.5251516,
    "lng": -93.7501789,
    "dwell_time": 58.24,
    "Average": 58.24,
    "indicator": null,
    "congestion_level": "Very High"
  },
  {
    "date": "2025-07-04 0:00:00",
    "company": "CPKC",
    "location": "St. Paul, MN",
    "Yard": "St. Paul, MN",
    "lat": 44.9537029,
    "lng": -93.0899578,
    "dwell_time": 21.76,
    "Average": 21.76,
    "indicator": null,
    "congestion_level": "Very High"
  },
  {
    "date": "2025-07-04 0:00:00",
    "company": "CSX",
    "location": "Baltimore, MD",
    "Yard": "Baltimore, MD",
    "lat": 39.2903848,
    "lng": -76.6121893,
    "dwell_time": 16.26,
    "Average": 14.98074074,
    "indicator": 0.5139000063,
    "congestion_level": "Average"
  },
  {
    "date": "2025-07-04 0:00:00",
    "company": "CSX",
    "location": "Chicago, IL",
    "Yard": "Chicago, IL",
    "lat": 41.8781136,
    "lng": -87.6297982,
    "dwell_time": 15.67,
    "Average": 13.7815625,
    "indicator": 1.165777951,
    "congestion_level": "High"
  },
  {
    "date": "2025-07-04 0:00:00",
    "company": "CSX",
    "location": "Cincinnati, OH",
    "Yard": "Cincinnati, OH",
    "lat": 39.1031182,
    "lng": -84.5120196,
    "dwell_time": 23.95,
    "Average": 26.99295455,
    "indicator": -0.787771107,
    "congestion_level": "Average"
  },
  {
    "date": "2025-07-04 0:00:00",
    "company": "CSX",
    "location": "Indianapolis, IN",
    "Yard": "Indianapolis, IN",
    "lat": 39.768403,
    "lng": -86.158068,
    "dwell_time": 24.43,
    "Average": 29.43045455,
    "indicator": -0.8798041867,
    "congestion_level": "Average"
  },
  {
    "date": "2025-07-04 0:00:00",
    "company": "CSX",
    "location": "Jacksonville, FL",
    "Yard": "Jacksonville, FL",
    "lat": 30.3321838,
    "lng": -81.655651,
    "dwell_time": 20.03,
    "Average": 19.1796875,
    "indicator": 0.3282154034,
    "congestion_level": "Average"
  },
  {
    "date": "2025-07-04 0:00:00",
    "company": "CSX",
    "location": "Louisville, KY",
    "Yard": "Louisville, KY",
    "lat": 38.2526647,
    "lng": -85.7584557,
    "dwell_time": 28.81,
    "Average": 30.41840909,
    "indicator": -0.1772229232,
    "congestion_level": "Average"
  },
  {
    "date": "2025-07-04 0:00:00",
    "company": "CSX",
    "location": "Nashville, TN",
    "Yard": "Nashville, TN",
    "lat": 36.1626638,
    "lng": -86.7816016,
    "dwell_time": 29.23,
    "Average": 31.14386364,
    "indicator": -0.2020519554,
    "congestion_level": "Average"
  },
  {
    "date": "2025-07-04 0:00:00",
    "company": "CSX",
    "location": "Rocky Mount, NC",
    "Yard": "Rocky Mount, NC",
    "lat": 35.9144906,
    "lng": -77.8064608,
    "dwell_time": null,
    "Average": 22.76,
    "indicator": null,
    "congestion_level": "Very High"
  },
  {
    "date": "2025-07-04 0:00:00",
    "company": "CSX",
    "location": "Selkirk, NY",
    "Yard": "Selkirk, NY",
    "lat": 42.5319998,
    "lng": -73.7985008,
    "dwell_time": 25.19,
    "Average": 27.41136364,
    "indicator": -0.510244651,
    "congestion_level": "Average"
  },
  {
    "date": "2025-07-04 0:00:00",
    "company": "CSX",
    "location": "Toledo, OH",
    "Yard": "Toledo, OH",
    "lat": 41.6528052,
    "lng": -83.5378674,
    "dwell_time": 24.57,
    "Average": 33.86045455,
    "indicator": -1.297364324,
    "congestion_level": "Low"
  },
  {
    "date": "2025-07-04 0:00:00",
    "company": "CSX",
    "location": "Waycross, GA",
    "Yard": "Waycross, GA",
    "lat": 31.2135511,
    "lng": -82.3540178,
    "dwell_time": 25.09,
    "Average": 24.61863636,
    "indicator": 0.1037074263,
    "congestion_level": "Average"
  },
  {
    "date": "2025-07-04 0:00:00",
    "company": "NS",
    "location": "Allentown, PA",
    "Yard": "Allentown, PA",
    "lat": 40.6022939,
    "lng": -75.4714098,
    "dwell_time": null,
    "Average": 22.73636364,
    "indicator": null,
    "congestion_level": "Very High"
  },
  {
    "date": "2025-07-04 0:00:00",
    "company": "NS",
    "location": "Atlanta, GA",
    "Yard": "Atlanta, GA",
    "lat": 33.7489954,
    "lng": -84.3879824,
    "dwell_time": 18.3,
    "Average": 17.27222222,
    "indicator": 0.2645178824,
    "congestion_level": "Average"
  },
  {
    "date": "2025-07-04 0:00:00",
    "company": "NS",
    "location": "Bellevue, OH",
    "Yard": "Bellevue, OH",
    "lat": 41.2736647,
    "lng": -82.8415763,
    "dwell_time": 33.0,
    "Average": 28.61363636,
    "indicator": 0.9831947967,
    "congestion_level": "Average"
  },
  {
    "date": "2025-07-04 0:00:00",
    "company": "NS",
    "location": "Birmingham, AL",
    "Yard": "Birmingham, AL",
    "lat": 33.5185892,
    "lng": -86.8103567,
    "dwell_time": 31.6,
    "Average": 31.45,
    "indicator": 0.02072782958,
    "congestion_level": "Average"
  },
  {
    "date": "2025-07-04 0:00:00",
    "company": "NS",
    "location": "Chattanooga, TN",
    "Yard": "Chattanooga, TN",
    "lat": 35.0456297,
    "lng": -85.3096801,
    "dwell_time": 25.5,
    "Average": 32.27727273,
    "indicator": -0.7533009958,
    "congestion_level": "Average"
  },
  {
    "date": "2025-07-04 0:00:00",
    "company": "NS",
    "location": "Pittsburgh, PA",
    "Yard": "Pittsburgh, PA",
    "lat": 40.4406248,
    "lng": -79.9958864,
    "dwell_time": 31.6,
    "Average": 27.69545455,
    "indicator": 0.9080400562,
    "congestion_level": "Average"
  },
  {
    "date": "2025-07-04 0:00:00",
    "company": "NS",
    "location": "Decatur, IL",
    "Yard": "Decatur, IL",
    "lat": 39.8403147,
    "lng": -88.9548001,
    "dwell_time": 29.2,
    "Average": 24.81136364,
    "indicator": 0.7108041091,
    "congestion_level": "Average"
  },
  {
    "date": "2025-07-04 0:00:00",
    "company": "NS",
    "location": "Elkhart, IN",
    "Yard": "Elkhart, IN",
    "lat": 41.6819935,
    "lng": -85.9766671,
    "dwell_time": 24.5,
    "Average": 27.95454545,
    "indicator": -0.7204940722,
    "congestion_level": "Average"
  },
  {
    "date": "2025-07-04 0:00:00",
    "company": "NS",
    "location": "Harrisburg, PA",
    "Yard": "Harrisburg, PA",
    "lat": 40.3028161,
    "lng": -76.8928454,
    "dwell_time": 9.1,
    "Average": 12.76363636,
    "indicator": -1.719511723,
    "congestion_level": "Low"
  },
  {
    "date": "2025-07-04 0:00:00",
    "company": "NS",
    "location": "Linwood, NC",
    "Yard": "Linwood, NC",
    "lat": 35.7506938,
    "lng": -80.3178305,
    "dwell_time": null,
    "Average": 26.75909091,
    "indicator": null,
    "congestion_level": "Very High"
  },
  {
    "date": "2025-07-04 0:00:00",
    "company": "NS",
    "location": "Macon, GA",
    "Yard": "Macon, GA",
    "lat": 32.8406946,
    "lng": -83.6324022,
    "dwell_time": 27.5,
    "Average": 28.34545455,
    "indicator": -0.1667006486,
    "congestion_level": "Average"
  },
  {
    "date": "2025-07-04 0:00:00",
    "company": "NS",
    "location": "Roanoke, VA",
    "Yard": "Roanoke, VA",
    "lat": 37.2739515,
    "lng": -79.9510329,
    "dwell_time": 40.2,
    "Average": 33.05454545,
    "indicator": 0.7310344318,
    "congestion_level": "Average"
  },
  {
    "date": "2025-07-04 0:00:00",
    "company": "UP",
    "location": "Proviso, IL",
    "Yard": "Proviso, IL",
    "lat": 41.8653429,
    "lng": -87.8721439,
    "dwell_time": 22.5,
    "Average": 28.275,
    "indicator": -1.02040999,
    "congestion_level": "Low"
  },
  {
    "date": "2025-07-04 0:00:00",
    "company": "UP",
    "location": "Fort Worth, TX",
    "Yard": "Fort Worth, TX",
    "lat": 32.7554883,
    "lng": -97.3307658,
    "dwell_time": 23.0,
    "Average": 27.89772727,
    "indicator": -0.9781861412,
    "congestion_level": "Average"
  },
  {
    "date": "2025-07-04 0:00:00",
    "company": "UP",
    "location": "Englewood, TX",
    "Yard": "Englewood, TX",
    "lat": 29.7983826,
    "lng": -95.3079662,
    "dwell_time": 22.6,
    "Average": 27.40454545,
    "indicator": -0.9761192662,
    "congestion_level": "Average"
  },
  {
    "date": "2025-07-04 0:00:00",
    "company": "UP",
    "location": "Livonia, LA",
    "Yard": "Livonia, LA",
    "lat": 30.5590803,
    "lng": -91.555945,
    "dwell_time": 23.4,
    "Average": 26.64090909,
    "indicator": -0.7559965677,
    "congestion_level": "Average"
  },
  {
    "date": "2025-07-04 0:00:00",
    "company": "UP",
    "location": "North Little Rock, AR",
    "Yard": "North Little Rock, AR",
    "lat": 34.769536,
    "lng": -92.2670941,
    "dwell_time": 22.2,
    "Average": 24.81363636,
    "indicator": -0.5319693499,
    "congestion_level": "Average"
  },
  {
    "date": "2025-07-04 0:00:00",
    "company": "UP",
    "location": "North Platte East, NE",
    "Yard": "North Platte East, NE",
    "lat": 41.1402759,
    "lng": -100.7601454,
    "dwell_time": null,
    "Average": 26.43461538,
    "indicator": null,
    "congestion_level": "Very High"
  },
  {
    "date": "2025-07-04 0:00:00",
    "company": "UP",
    "location": "North Platte West, NE",
    "Yard": "North Platte West, NE",
    "lat": 41.1402759,
    "lng": -100.7601454,
    "dwell_time": 22.5,
    "Average": 28.5,
    "indicator": -1.339726035,
    "congestion_level": "Low"
  },
  {
    "date": "2025-07-04 0:00:00",
    "company": "UP",
    "location": "Pine Bluff, AR",
    "Yard": "Pine Bluff, AR",
    "lat": 34.2284312,
    "lng": -92.0031955,
    "dwell_time": 26.1,
    "Average": 27.56818182,
    "indicator": -0.324913634,
    "congestion_level": "Average"
  },
  {
    "date": "2025-07-04 0:00:00",
    "company": "UP",
    "location": "Roseville, CA",
    "Yard": "Roseville, CA",
    "lat": 38.7521235,
    "lng": -121.2880059,
    "dwell_time": 20.3,
    "Average": 27.8,
    "indicator": -1.356506265,
    "congestion_level": "Low"
  },
  {
    "date": "2025-07-04 0:00:00",
    "company": "UP",
    "location": "Anthony, NM",
    "Yard": "Anthony, NM",
    "lat": 31.90796865,
    "lng": -106.7478105,
    "dwell_time": 23.1,
    "Average": 19.71111111,
    "indicator": 1.144854244,
    "congestion_level": "High"
  },
  {
    "date": "2025-07-04 0:00:00",
    "company": "UP",
    "location": "West Colton, CA",
    "Yard": "West Colton, CA",
    "lat": 34.0669931,
    "lng": -117.3529857,
    "dwell_time": 22.9,
    "Average": 31.34772727,
    "indicator": -1.204576402,
    "congestion_level": "Low"
  },
  {
    "date": "5/7/2025",
    "company": "CPKC",
    "location": "Albany, NY",
    "Yard": "Albany, NY",
    "lat": 42.63336715,
    "lng": -73.7611767,
    "dwell_time": 14.919077,
    "Average": null,
    "indicator": null,
    "congestion_level": "Low"
  },
  {
    "date": "5/7/2025",
    "company": "CPKC",
    "location": "Glenwood, MN",
    "Yard": "Glenwood, MN",
    "lat": 45.64988169,
    "lng": -95.36640325,
    "dwell_time": 22.406757,
    "Average": null,
    "indicator": null,
    "congestion_level": "Average"
  },
  {
    "date": "5/7/2025",
    "company": "CPKC",
    "location": "La Crosse, WI",
    "Yard": "La Crosse, WI",
    "lat": 43.84106914,
    "lng": -91.23753209,
    "dwell_time": 26.699513,
    "Average": null,
    "indicator": null,
    "congestion_level": "High"
  },
  {
    "date": "5/7/2025",
    "company": "CPKC",
    "location": "Mason City, IA",
    "Yard": "Mason City, IA",
    "lat": 43.1417676,
    "lng": -93.19591338,
    "dwell_time": 20.968754,
    "Average": null,
    "indicator": null,
    "congestion_level": "Average"
  },
  {
    "date": "5/7/2025",
    "company": "CPKC",
    "location": "Milwaukee, WI",
    "Yard": "Milwaukee, WI",
    "lat": 43.02753366,
    "lng": -87.9349538,
    "dwell_time": 30.099702,
    "Average": null,
    "indicator": null,
    "congestion_level": "Very High"
  },
  {
    "date": "5/7/2025",
    "company": "CPKC",
    "location": "Saratoga Springs, NY",
    "Yard": "Saratoga Springs, NY",
    "lat": 43.06684433,
    "lng": -73.8161988,
    "dwell_time": 17.332243,
    "Average": null,
    "indicator": null,
    "congestion_level": "Low"
  },
  {
    "date": "5/7/2025",
    "company": "CPKC",
    "location": "Wylie, TX",
    "Yard": "Wylie, TX",
    "lat": 33.02619265,
    "lng": -96.50913366,
    "dwell_time": 11.15,
    "Average": null,
    "indicator": null,
    "congestion_level": "Low"
  },
  {
    "date": "5/7/2025",
    "company": "CPKC",
    "location": "Artesia, MS",
    "Yard": "Artesia, MS",
    "lat": 33.41421071,
    "lng": -88.64338396,
    "dwell_time": 10.6,
    "Average": null,
    "indicator": null,
    "congestion_level": "Low"
  },
  {
    "date": "5/7/2025",
    "company": "CPKC",
    "location": "Baton Rouge, LA",
    "Yard": "Baton Rouge, LA",
    "lat": 30.46068888,
    "lng": -91.17492516,
    "dwell_time": 9.09,
    "Average": null,
    "indicator": null,
    "congestion_level": "Very Low"
  },
  {
    "date": "5/7/2025",
    "company": "CPKC",
    "location": "Whittington, LA",
    "Yard": "Whittington, LA",
    "lat": 31.18994913,
    "lng": -92.34272999,
    "dwell_time": 17.69,
    "Average": null,
    "indicator": null,
    "congestion_level": "Low"
  },
  {
    "date": "5/7/2025",
    "company": "CPKC",
    "location": "Beaumont, TX",
    "Yard": "Beaumont, TX",
    "lat": 30.04787963,
    "lng": -94.07457009,
    "dwell_time": 17.05,
    "Average": null,
    "indicator": null,
    "congestion_level": "Low"
  }
]