[
  {
    "date": "2025-07-18 0:00:00",
    "company": "BNSF",
    "location": "Barstow, CA",
    "Yard": "Barstow, CA",
    "lat": 34.8957957,
    "lng": -117.0172826,
    "dwell_time": 24.6,
    "Average": 35.43478261,
    "indicator": -1.682774794,
    "congestion_level": "Low"
  },
  {
    "date": "2025-07-18 0:00:00",
    "company": "BNSF",
    "location": "Denver, CO",
    "Yard": "Denver, CO",
    "lat": 39.7392358,
    "lng": -104.990251,
    "dwell_time": 25.4,
    "Average": 32.30217391,
    "indicator": -1.765845544,
    "congestion_level": "Low"
  },
  {
    "date": "2025-07-18 0:00:00",
    "company": "BNSF",
    "location": "Fort Worth, TX",
    "Yard": "Fort Worth, TX",
    "lat": 32.7554883,
    "lng": -97.3307658,
    "dwell_time": 28.2,
    "Average": 27.90217391,
    "indicator": 0.05182376181,
    "congestion_level": "Average"
  },
  {
    "date": "2025-07-18 0:00:00",
    "company": "BNSF",
    "location": "Galesburg, IL",
    "Yard": "Galesburg, IL",
    "lat": 40.9478158,
    "lng": -90.3712395,
    "dwell_time": 24.4,
    "Average": 31.54347826,
    "indicator": -2.11564753,
    "congestion_level": "Very Low"
  },
  {
    "date": "2025-07-18 0:00:00",
    "company": "BNSF",
    "location": "Kansas City, KS",
    "Yard": "Kansas City, KS",
    "lat": 39.0997265,
    "lng": -94.5785667,
    "dwell_time": 25.7,
    "Average": 33.80869565,
    "indicator": -1.414844783,
    "congestion_level": "Low"
  },
  {
    "date": "2025-07-18 0:00:00",
    "company": "BNSF",
    "location": "Lincoln, NE",
    "Yard": "Lincoln, NE",
    "lat": 40.813616,
    "lng": -96.7025955,
    "dwell_time": 26.2,
    "Average": 30.6673913,
    "indicator": -0.9678937863,
    "congestion_level": "Average"
  },
  {
    "date": "2025-07-18 0:00:00",
    "company": "BNSF",
    "location": "Memphis, TN",
    "Yard": "Memphis, TN",
    "lat": 35.1495343,
    "lng": -90.0489801,
    "dwell_time": 15.0,
    "Average": 18.50652174,
    "indicator": -1.17097044,
    "congestion_level": "Low"
  },
  {
    "date": "2025-07-18 0:00:00",
    "company": "BNSF",
    "location": "Northtown, MN",
    "Yard": "Northtown, MN",
    "lat": 45.128403,
    "lng": -93.259694,
    "dwell_time": 22.7,
    "Average": 31.25217391,
    "indicator": -2.039633103,
    "congestion_level": "Very Low"
  },
  {
    "date": "2025-07-18 0:00:00",
    "company": "BNSF",
    "location": "Pasco, WA",
    "Yard": "Pasco, WA",
    "lat": 46.2305049,
    "lng": -119.0922316,
    "dwell_time": 20.6,
    "Average": 28.76086957,
    "indicator": -1.90277732,
    "congestion_level": "Low"
  },
  {
    "date": "2025-07-18 0:00:00",
    "company": "BNSF",
    "location": "Tulsa, OK",
    "Yard": "Tulsa, OK",
    "lat": 36.1539816,
    "lng": -95.992775,
    "dwell_time": 20.6,
    "Average": 26.36521739,
    "indicator": -1.71342479,
    "congestion_level": "Low"
  },
  {
    "date": "2025-07-18 0:00:00",
    "company": "CN",
    "location": "Baton Rouge, LA",
    "Yard": "Baton Rouge, LA",
    "lat": 30.4514677,
    "lng": -91.1871466,
    "dwell_time": 18.29,
    "Average": 15.00586957,
    "indicator": 0.915911865,
    "congestion_level": "Average"
  },
  {
    "date": "2025-07-18 0:00:00",
    "company": "CN",
    "location": "Champaign, IL",
    "Yard": "Champaign, IL",
    "lat": 40.1164204,
    "lng": -88.2433829,
    "dwell_time": 15.9,
    "Average": 20.11804348,
    "indicator": -0.8236536603,
    "congestion_level": "Average"
  },
  {
    "date": "2025-07-18 0:00:00",
    "company": "CN",
    "location": "Fond Du Lac, WI",
    "Yard": "Fond Du Lac, WI",
    "lat": 43.7730448,
    "lng": -88.4470508,
    "dwell_time": 18.32,
    "Average": 21.8873913,
    "indicator": -0.8182636897,
    "congestion_level": "Average"
  },
  {
    "date": "2025-07-18 0:00:00",
    "company": "CN",
    "location": "Geismar, LA",
    "Yard": "Geismar, LA",
    "lat": 30.2193468,
    "lng": -91.0065088,
    "dwell_time": 17.38,
    "Average": 14.99543478,
    "indicator": 1.151379313,
    "congestion_level": "High"
  },
  {
    "date": "2025-07-18 0:00:00",
    "company": "CN",
    "location": "Jackson, MS",
    "Yard": "Jackson, MS",
    "lat": 32.2987573,
    "lng": -90.1848103,
    "dwell_time": 13.63,
    "Average": 12.7773913,
    "indicator": 0.321512336,
    "congestion_level": "Average"
  },
  {
    "date": "2025-07-18 0:00:00",
    "company": "CN",
    "location": "Gary, IN",
    "Yard": "Gary, IN",
    "lat": 41.5933696,
    "lng": -87.3464271,
    "dwell_time": 22.65,
    "Average": 23.94369565,
    "indicator": -0.3373109323,
    "congestion_level": "Average"
  },
  {
    "date": "2025-07-18 0:00:00",
    "company": "CN",
    "location": "Markham, ON",
    "Yard": "Markham, ON",
    "lat": 43.8561002,
    "lng": -79.3370188,
    "dwell_time": 12.59,
    "Average": 12.46565217,
    "indicator": 0.04352362351,
    "congestion_level": "Average"
  },
  {
    "date": "2025-07-18 0:00:00",
    "company": "CN",
    "location": "Memphis, TN",
    "Yard": "Memphis, TN",
    "lat": 35.1495343,
    "lng": -90.0489801,
    "dwell_time": 24.2,
    "Average": 21.53913043,
    "indicator": 0.7389081336,
    "congestion_level": "Average"
  },
  {
    "date": "2025-07-18 0:00:00",
    "company": "CN",
    "location": "Proctor, MN",
    "Yard": "Proctor, MN",
    "lat": 46.7471638,
    "lng": -92.2254695,
    "dwell_time": 9.16,
    "Average": 8.941521739,
    "indicator": 0.08602816263,
    "congestion_level": "Average"
  },
  {
    "date": "2025-07-18 0:00:00",
    "company": "CN",
    "location": "Stevens Point, WI",
    "Yard": "Stevens Point, WI",
    "lat": 44.5235792,
    "lng": -89.574563,
    "dwell_time": 22.68,
    "Average": 21.125,
    "indicator": 0.6809695817,
    "congestion_level": "Average"
  },
  {
    "date": "2025-07-18 0:00:00",
    "company": "CPKC",
    "location": "Bensenville, IL",
    "Yard": "Bensenville, IL",
    "lat": 41.9550296,
    "lng": -87.9400657,
    "dwell_time": 29.9,
    "Average": 30.66333333,
    "indicator": -0.8079373348,
    "congestion_level": "Average"
  },
  {
    "date": "2025-07-18 0:00:00",
    "company": "CPKC",
    "location": "Harvey, ND",
    "Yard": "Harvey, ND",
    "lat": 47.769723,
    "lng": -99.935404,
    "dwell_time": 12.84,
    "Average": 16.32333333,
    "indicator": -1.113799725,
    "congestion_level": "Low"
  },
  {
    "date": "2025-07-18 0:00:00",
    "company": "CPKC",
    "location": "Jackson, MS",
    "Yard": "Jackson, MS",
    "lat": 32.2987573,
    "lng": -90.1848103,
    "dwell_time": 36.5,
    "Average": 33.69,
    "indicator": 1.096277069,
    "congestion_level": "High"
  },
  {
    "date": "2025-07-18 0:00:00",
    "company": "CPKC",
    "location": "Kansas City, KS",
    "Yard": "Kansas City, KS",
    "lat": 39.0997265,
    "lng": -94.5785667,
    "dwell_time": 19.48,
    "Average": 23.4,
    "indicator": -0.8551861105,
    "congestion_level": "Average"
  },
  {
    "date": "2025-07-18 0:00:00",
    "company": "CPKC",
    "location": "Laredo, TX",
    "Yard": "Laredo, TX",
    "lat": 27.5035613,
    "lng": -99.5075519,
    "dwell_time": 7.11,
    "Average": 5.876666667,
    "indicator": 1.0942197,
    "congestion_level": "High"
  },
  {
    "date": "2025-07-18 0:00:00",
    "company": "CPKC",
    "location": "Meridian, MS",
    "Yard": "Meridian, MS",
    "lat": 32.3610377,
    "lng": -88.6991015,
    "dwell_time": 7.67,
    "Average": 6.986666667,
    "indicator": 1.107299565,
    "congestion_level": "High"
  },
  {
    "date": "2025-07-18 0:00:00",
    "company": "CPKC",
    "location": "Nahant, IA",
    "Yard": "Nahant, IA",
    "lat": 41.4875323,
    "lng": -90.6379164,
    "dwell_time": 23.39,
    "Average": 25.02666667,
    "indicator": -0.9262782566,
    "congestion_level": "Average"
  },
  {
    "date": "2025-07-18 0:00:00",
    "company": "CPKC",
    "location": "New Orleans, LA",
    "Yard": "New Orleans, LA",
    "lat": 29.9725656,
    "lng": -90.1399969,
    "dwell_time": 17.56,
    "Average": 24.42,
    "indicator": -1.154046775,
    "congestion_level": "Low"
  },
  {
    "date": "2025-07-18 0:00:00",
    "company": "CPKC",
    "location": "Shreveport, LA",
    "Yard": "Shreveport, LA",
    "lat": 32.5251516,
    "lng": -93.7501789,
    "dwell_time": 49.48,
    "Average": 56.4,
    "indicator": -1.114691647,
    "congestion_level": "Low"
  },
  {
    "date": "2025-07-18 0:00:00",
    "company": "CPKC",
    "location": "St. Paul, MN",
    "Yard": "St. Paul, MN",
    "lat": 44.9537029,
    "lng": -93.0899578,
    "dwell_time": 19.95,
    "Average": 20.43333333,
    "indicator": -0.4156127042,
    "congestion_level": "Average"
  },
  {
    "date": "2025-07-18 0:00:00",
    "company": "CSX",
    "location": "Baltimore, MD",
    "Yard": "Baltimore, MD",
    "lat": 39.2903848,
    "lng": -76.6121893,
    "dwell_time": 19.43,
    "Average": 15.23517241,
    "indicator": 1.620546598,
    "congestion_level": "High"
  },
  {
    "date": "2025-07-18 0:00:00",
    "company": "CSX",
    "location": "Chicago, IL",
    "Yard": "Chicago, IL",
    "lat": 41.8781136,
    "lng": -87.6297982,
    "dwell_time": 15.19,
    "Average": 13.90147059,
    "indicator": 0.7804114313,
    "congestion_level": "Average"
  },
  {
    "date": "2025-07-18 0:00:00",
    "company": "CSX",
    "location": "Cincinnati, OH",
    "Yard": "Cincinnati, OH",
    "lat": 39.1031182,
    "lng": -84.5120196,
    "dwell_time": 23.05,
    "Average": 26.84347826,
    "indicator": -0.9870212314,
    "congestion_level": "Average"
  },
  {
    "date": "2025-07-18 0:00:00",
    "company": "CSX",
    "location": "Indianapolis, IN",
    "Yard": "Indianapolis, IN",
    "lat": 39.768403,
    "lng": -86.158068,
    "dwell_time": 22.16,
    "Average": 29.24130435,
    "indicator": -1.250810235,
    "congestion_level": "Low"
  },
  {
    "date": "2025-07-18 0:00:00",
    "company": "CSX",
    "location": "Jacksonville, FL",
    "Yard": "Jacksonville, FL",
    "lat": 30.3321838,
    "lng": -81.655651,
    "dwell_time": 17.51,
    "Average": 19.14911765,
    "indicator": -0.6478885781,
    "congestion_level": "Average"
  },
  {
    "date": "2025-07-18 0:00:00",
    "company": "CSX",
    "location": "Louisville, KY",
    "Yard": "Louisville, KY",
    "lat": 38.2526647,
    "lng": -85.7584557,
    "dwell_time": 25.1,
    "Average": 30.17217391,
    "indicator": -0.5668203822,
    "congestion_level": "Average"
  },
  {
    "date": "2025-07-18 0:00:00",
    "company": "CSX",
    "location": "Nashville, TN",
    "Yard": "Nashville, TN",
    "lat": 36.1626638,
    "lng": -86.7816016,
    "dwell_time": 28.56,
    "Average": 31.0276087,
    "indicator": -0.2660302443,
    "congestion_level": "Average"
  },
  {
    "date": "2025-07-18 0:00:00",
    "company": "CSX",
    "location": "Rocky Mount, NC",
    "Yard": "Rocky Mount, NC",
    "lat": 35.9144906,
    "lng": -77.8064608,
    "dwell_time": null,
    "Average": 22.76,
    "indicator": null,
    "congestion_level": "Very High"
  },
  {
    "date": "2025-07-18 0:00:00",
    "company": "CSX",
    "location": "Selkirk, NY",
    "Yard": "Selkirk, NY",
    "lat": 42.5319998,
    "lng": -73.7985008,
    "dwell_time": 23.26,
    "Average": 27.27956522,
    "indicator": -0.9330877621,
    "congestion_level": "Average"
  },
  {
    "date": "2025-07-18 0:00:00",
    "company": "CSX",
    "location": "Toledo, OH",
    "Yard": "Toledo, OH",
    "lat": 41.6528052,
    "lng": -83.5378674,
    "dwell_time": 20.6,
    "Average": 33.42543478,
    "indicator": -1.749735316,
    "congestion_level": "Low"
  },
  {
    "date": "2025-07-18 0:00:00",
    "company": "CSX",
    "location": "Waycross, GA",
    "Yard": "Waycross, GA",
    "lat": 31.2135511,
    "lng": -82.3540178,
    "dwell_time": 27.84,
    "Average": 24.67804348,
    "indicator": 0.7075240705,
    "congestion_level": "Average"
  },
  {
    "date": "2025-07-18 0:00:00",
    "company": "NS",
    "location": "Allentown, PA",
    "Yard": "Allentown, PA",
    "lat": 40.6022939,
    "lng": -75.4714098,
    "dwell_time": null,
    "Average": 22.73636364,
    "indicator": null,
    "congestion_level": "Very High"
  },
  {
    "date": "2025-07-18 0:00:00",
    "company": "NS",
    "location": "Atlanta, GA",
    "Yard": "Atlanta, GA",
    "lat": 33.7489954,
    "lng": -84.3879824,
    "dwell_time": 19.2,
    "Average": 17.35,
    "indicator": 0.4874560544,
    "congestion_level": "Average"
  },
  {
    "date": "2025-07-18 0:00:00",
    "company": "NS",
    "location": "Bellevue, OH",
    "Yard": "Bellevue, OH",
    "lat": 41.2736647,
    "lng": -82.8415763,
    "dwell_time": 31.1,
    "Average": 28.6673913,
    "indicator": 0.555840001,
    "congestion_level": "Average"
  },
  {
    "date": "2025-07-18 0:00:00",
    "company": "NS",
    "location": "Birmingham, AL",
    "Yard": "Birmingham, AL",
    "lat": 33.5185892,
    "lng": -86.8103567,
    "dwell_time": 28.5,
    "Average": 31.28913043,
    "indicator": -0.3919090876,
    "congestion_level": "Average"
  },
  {
    "date": "2025-07-18 0:00:00",
    "company": "NS",
    "location": "Chattanooga, TN",
    "Yard": "Chattanooga, TN",
    "lat": 35.0456297,
    "lng": -85.3096801,
    "dwell_time": 26.7,
    "Average": 31.98043478,
    "indicator": -0.5926141944,
    "congestion_level": "Average"
  },
  {
    "date": "2025-07-18 0:00:00",
    "company": "NS",
    "location": "Pittsburgh, PA",
    "Yard": "Pittsburgh, PA",
    "lat": 40.4406248,
    "lng": -79.9958864,
    "dwell_time": 29.0,
    "Average": 27.72826087,
    "indicator": 0.3022333372,
    "congestion_level": "Average"
  },
  {
    "date": "2025-07-18 0:00:00",
    "company": "NS",
    "location": "Decatur, IL",
    "Yard": "Decatur, IL",
    "lat": 39.8403147,
    "lng": -88.9548001,
    "dwell_time": 26.9,
    "Average": 24.90869565,
    "indicator": 0.3289710898,
    "congestion_level": "Average"
  },
  {
    "date": "2025-07-18 0:00:00",
    "company": "NS",
    "location": "Elkhart, IN",
    "Yard": "Elkhart, IN",
    "lat": 41.6819935,
    "lng": -85.9766671,
    "dwell_time": 22.1,
    "Average": 27.72608696,
    "indicator": -1.169134624,
    "congestion_level": "Low"
  },
  {
    "date": "2025-07-18 0:00:00",
    "company": "NS",
    "location": "Harrisburg, PA",
    "Yard": "Harrisburg, PA",
    "lat": 40.3028161,
    "lng": -76.8928454,
    "dwell_time": 8.8,
    "Average": 12.55833333,
    "indicator": -1.711115209,
    "congestion_level": "Low"
  },
  {
    "date": "2025-07-18 0:00:00",
    "company": "NS",
    "location": "Linwood, NC",
    "Yard": "Linwood, NC",
    "lat": 35.7506938,
    "lng": -80.3178305,
    "dwell_time": null,
    "Average": 26.75909091,
    "indicator": null,
    "congestion_level": "Very High"
  },
  {
    "date": "2025-07-18 0:00:00",
    "company": "NS",
    "location": "Macon, GA",
    "Yard": "Macon, GA",
    "lat": 32.8406946,
    "lng": -83.6324022,
    "dwell_time": 28.0,
    "Average": 28.33478261,
    "indicator": -0.06752356937,
    "congestion_level": "Average"
  },
  {
    "date": "2025-07-18 0:00:00",
    "company": "NS",
    "location": "Roanoke, VA",
    "Yard": "Roanoke, VA",
    "lat": 37.2739515,
    "lng": -79.9510329,
    "dwell_time": 34.0,
    "Average": 33.45416667,
    "indicator": 0.0574230974,
    "congestion_level": "Average"
  },
  {
    "date": "2025-07-18 0:00:00",
    "company": "UP",
    "location": "Proviso, IL",
    "Yard": "Proviso, IL",
    "lat": 41.8653429,
    "lng": -87.8721439,
    "dwell_time": 21.1,
    "Average": 27.98695652,
    "indicator": -1.208319736,
    "congestion_level": "Low"
  },
  {
    "date": "2025-07-18 0:00:00",
    "company": "UP",
    "location": "Fort Worth, TX",
    "Yard": "Fort Worth, TX",
    "lat": 32.7554883,
    "lng": -97.3307658,
    "dwell_time": 20.4,
    "Average": 27.56956522,
    "indicator": -1.395975682,
    "congestion_level": "Low"
  },
  {
    "date": "2025-07-18 0:00:00",
    "company": "UP",
    "location": "Englewood, TX",
    "Yard": "Englewood, TX",
    "lat": 29.7983826,
    "lng": -95.3079662,
    "dwell_time": 21.0,
    "Average": 27.17391304,
    "indicator": -1.249867213,
    "congestion_level": "Low"
  },
  {
    "date": "2025-07-18 0:00:00",
    "company": "UP",
    "location": "Livonia, LA",
    "Yard": "Livonia, LA",
    "lat": 30.5590803,
    "lng": -91.555945,
    "dwell_time": 20.6,
    "Average": 26.43913043,
    "indicator": -1.35523656,
    "congestion_level": "Low"
  },
  {
    "date": "2025-07-18 0:00:00",
    "company": "UP",
    "location": "North Little Rock, AR",
    "Yard": "North Little Rock, AR",
    "lat": 34.769536,
    "lng": -92.2670941,
    "dwell_time": 20.5,
    "Average": 24.70652174,
    "indicator": -0.8681793144,
    "congestion_level": "Average"
  },
  {
    "date": "2025-07-18 0:00:00",
    "company": "UP",
    "location": "North Platte East, NE",
    "Yard": "North Platte East, NE",
    "lat": 41.1402759,
    "lng": -100.7601454,
    "dwell_time": null,
    "Average": 26.43461538,
    "indicator": null,
    "congestion_level": "Very High"
  },
  {
    "date": "2025-07-18 0:00:00",
    "company": "UP",
    "location": "North Platte West, NE",
    "Yard": "North Platte West, NE",
    "lat": 41.1402759,
    "lng": -100.7601454,
    "dwell_time": 20.1,
    "Average": 28.12391304,
    "indicator": -1.697278575,
    "congestion_level": "Low"
  },
  {
    "date": "2025-07-18 0:00:00",
    "company": "UP",
    "location": "Pine Bluff, AR",
    "Yard": "Pine Bluff, AR",
    "lat": 34.2284312,
    "lng": -92.0031955,
    "dwell_time": 22.6,
    "Average": 27.35652174,
    "indicator": -1.050054524,
    "congestion_level": "Low"
  },
  {
    "date": "2025-07-18 0:00:00",
    "company": "UP",
    "location": "Roseville, CA",
    "Yard": "Roseville, CA",
    "lat": 38.7521235,
    "lng": -121.2880059,
    "dwell_time": 20.0,
    "Average": 27.45652174,
    "indicator": -1.320952482,
    "congestion_level": "Low"
  },
  {
    "date": "2025-07-18 0:00:00",
    "company": "UP",
    "location": "Anthony, NM",
    "Yard": "Anthony, NM",
    "lat": 31.90796865,
    "lng": -106.7478105,
    "dwell_time": 22.8,
    "Average": 19.99,
    "indicator": 0.9589711756,
    "congestion_level": "Average"
  },
  {
    "date": "2025-07-18 0:00:00",
    "company": "UP",
    "location": "West Colton, CA",
    "Yard": "West Colton, CA",
    "lat": 34.0669931,
    "lng": -117.3529857,
    "dwell_time": 20.2,
    "Average": 30.88913043,
    "indicator": -1.486002063,
    "congestion_level": "Low"
  },
  {
    "date": "5/7/2025",
    "company": "CPKC",
    "location": "Albany, NY",
    "Yard": "Albany, NY",
    "lat": 42.63336715,
    "lng": -73.7611767,
    "dwell_time": 14.919077,
    "Average": null,
    "indicator": null,
    "congestion_level": "Low"
  },
  {
    "date": "5/7/2025",
    "company": "CPKC",
    "location": "Glenwood, MN",
    "Yard": "Glenwood, MN",
    "lat": 45.64988169,
    "lng": -95.36640325,
    "dwell_time": 22.406757,
    "Average": null,
    "indicator": null,
    "congestion_level": "Average"
  },
  {
    "date": "5/7/2025",
    "company": "CPKC",
    "location": "La Crosse, WI",
    "Yard": "La Crosse, WI",
    "lat": 43.84106914,
    "lng": -91.23753209,
    "dwell_time": 26.699513,
    "Average": null,
    "indicator": null,
    "congestion_level": "High"
  },
  {
    "date": "5/7/2025",
    "company": "CPKC",
    "location": "Mason City, IA",
    "Yard": "Mason City, IA",
    "lat": 43.1417676,
    "lng": -93.19591338,
    "dwell_time": 20.968754,
    "Average": null,
    "indicator": null,
    "congestion_level": "Average"
  },
  {
    "date": "5/7/2025",
    "company": "CPKC",
    "location": "Milwaukee, WI",
    "Yard": "Milwaukee, WI",
    "lat": 43.02753366,
    "lng": -87.9349538,
    "dwell_time": 30.099702,
    "Average": null,
    "indicator": null,
    "congestion_level": "Very High"
  },
  {
    "date": "5/7/2025",
    "company": "CPKC",
    "location": "Saratoga Springs, NY",
    "Yard": "Saratoga Springs, NY",
    "lat": 43.06684433,
    "lng": -73.8161988,
    "dwell_time": 17.332243,
    "Average": null,
    "indicator": null,
    "congestion_level": "Low"
  },
  {
    "date": "5/7/2025",
    "company": "CPKC",
    "location": "Wylie, TX",
    "Yard": "Wylie, TX",
    "lat": 33.02619265,
    "lng": -96.50913366,
    "dwell_time": 11.15,
    "Average": null,
    "indicator": null,
    "congestion_level": "Low"
  },
  {
    "date": "5/7/2025",
    "company": "CPKC",
    "location": "Artesia, MS",
    "Yard": "Artesia, MS",
    "lat": 33.41421071,
    "lng": -88.64338396,
    "dwell_time": 10.6,
    "Average": null,
    "indicator": null,
    "congestion_level": "Low"
  },
  {
    "date": "5/7/2025",
    "company": "CPKC",
    "location": "Baton Rouge, LA",
    "Yard": "Baton Rouge, LA",
    "lat": 30.46068888,
    "lng": -91.17492516,
    "dwell_time": 9.09,
    "Average": null,
    "indicator": null,
    "congestion_level": "Very Low"
  },
  {
    "date": "5/7/2025",
    "company": "CPKC",
    "location": "Whittington, LA",
    "Yard": "Whittington, LA",
    "lat": 31.18994913,
    "lng": -92.34272999,
    "dwell_time": 17.69,
    "Average": null,
    "indicator": null,
    "congestion_level": "Low"
  },
  {
    "date": "5/7/2025",
    "company": "CPKC",
    "location": "Beaumont, TX",
    "Yard": "Beaumont, TX",
    "lat": 30.04787963,
    "lng": -94.07457009,
    "dwell_time": 17.05,
    "Average": null,
    "indicator": null,
    "congestion_level": "Low"
  }
]